%time,field.position.x,field.position.y,field.position.z,field.orientation.x,field.orientation.y,field.orientation.z,field.orientation.w
1645173509453205846,-0.005048308792134599,-0.07630001443188533,0.0,0.49982878284393956,0.5001714309563992,0.5002655999112678,0.4997339862778863
1645173509511002963,-0.0050483087921346,-0.07630001443188537,0.0,0.49982878284393933,0.5001714309563989,0.5002655999112681,0.4997339862778865
1645173509571624464,-0.005048308792134598,-0.07630001443188542,0.0,0.4998287828439391,0.5001714309563987,0.5002655999112683,0.49973398627788673
1645173509625706784,-0.005048308792134597,-0.07630001443188544,0.0,0.4998287828439389,0.5001714309563985,0.5002655999112685,0.49973398627788695
1645173509678213484,-0.005048308792134596,-0.07630001443188547,0.0,0.49982878284393867,0.5001714309563983,0.5002655999112687,0.4997339862778872
1645173509741452247,-0.005048308792134597,-0.0763000144318855,0.0,0.4998287828439385,0.500171430956398,0.500265599911269,0.49973398627788734
1645173509801422088,-0.005048308792134597,-0.07630001443188553,0.0,0.4998287828439382,0.5001714309563977,0.5002655999112693,0.4997339862778876
1645173509855908539,-0.005048308792134596,-0.07630001443188554,0.0,0.4998287828439381,0.5001714309563976,0.5002655999112694,0.4997339862778878
1645173509915042527,-0.005048308792134595,-0.07630001443188555,0.0,0.499828782843938,0.5001714309563975,0.5002655999112695,0.4997339862778879
1645173509969868254,-0.0050483087921345945,-0.07630001443188557,0.0,0.4998287828439379,0.5001714309563974,0.5002655999112696,0.499733986277888
1645173510028478428,-0.0050483087921345945,-0.07630001443188558,0.0,0.4998287828439378,0.5001714309563973,0.5002655999112697,0.4997339862778881
1645173510083661863,-0.0050483087921345945,-0.0763000144318856,0.0,0.49982878284393767,0.5001714309563972,0.5002655999112698,0.49973398627788823
1645173510137592274,-0.0050483087921345945,-0.07630001443188561,0.0,0.4998287828439376,0.500171430956397,0.50026559991127,0.4997339862778883
1645173510195480433,-0.0050483087921345945,-0.07630001443188562,0.0,0.49982878284393756,0.500171430956397,0.50026559991127,0.49973398627788834
1645173510252533297,-0.0050483087921345945,-0.07630001443188564,0.0,0.4998287828439375,0.5001714309563969,0.5002655999112701,0.4997339862778884
1645173510315020609,-0.0050483087921345945,-0.07630001443188565,0.0,0.49982878284393745,0.5001714309563969,0.5002655999112701,0.49973398627788845
1645173510365980885,-0.0050483087921345945,-0.07630001443188567,0.0,0.4998287828439374,0.5001714309563968,0.5002655999112702,0.4997339862778885
1645173510423173135,-0.0050483087921345945,-0.07630001443188568,0.0,0.49982878284393717,0.5001714309563966,0.5002655999112704,0.49973398627788873
1645173510481128624,-0.005048308792134595,-0.07630001443188568,0.0,0.49982878284393717,0.5001714309563966,0.5002655999112704,0.49973398627788873
1645173510540770548,-0.005048308792134596,-0.07630001443188568,0.0,0.49982878284393717,0.5001714309563966,0.5002655999112704,0.49973398627788873
1645173510610836301,-0.004470723754731138,-0.07629964087073138,2.1997010546261975e-09,0.50297886021491,0.49701063380551824,0.4970986844256338,0.5028773150614817
1645173510674917464,-0.004458870375638762,-0.07621427821767993,4.892068514231492e-09,0.5040035499979795,0.49597224680789875,0.4960602209155653,0.5039009914764538
1645173510734641223,-0.004445567488658566,-0.07603732591270862,7.3481321512695425e-09,0.5049383515389022,0.49501965583576746,0.49510912917267097,0.5048363613006568
1645173510793252426,-0.00443056150827663,-0.07578419302304343,9.727780510875209e-09,0.5057501607948937,0.49418808683487303,0.4942802559794148,0.5056500155595218
1645173510850974900,-0.004413476962700744,-0.07546282915959122,1.2018762913621984e-08,0.506462497852777,0.4934551202700628,0.4935506898403997,0.5063649860585174
1645173510907194525,-0.004394945268260584,-0.07508851719223188,1.412750779531788e-08,0.5070399990803034,0.4928583881515808,0.49295767847286076,0.5069455353348251
1645173510960195104,-0.004374093158417969,-0.07467060228741405,1.6205132625118965e-08,0.5075764373758558,0.49230230070434133,0.4924055510998873,0.5074853477570123
1645173511013426128,-0.004350354320016955,-0.07420645036076431,1.8237014931097282e-08,0.5080922145710004,0.49176614677372654,0.4918735141494242,0.5080047287751834
1645173511066791470,-0.004324914143105134,-0.07370694548552405,2.0127403488727798e-08,0.5085304850363035,0.491309469377673,0.49142053946690273,0.5084462650847409
1645173511128337061,-0.004297430093251709,-0.07317323985597136,2.1922350430161184e-08,0.5089289675012634,0.4908935299811322,0.49100796539415176,0.508847743613205
1645173511188859032,-0.004267629981988765,-0.07260716689448528,2.3637532704718663e-08,0.5093041950622619,0.4905013919189852,0.49061883506269865,0.5092256671646015
1645173511242359472,-0.004233904319493857,-0.07200465337751667,2.5316471182471227e-08,0.5097104888447157,0.49007710705769536,0.4901967916792623,0.5096339393397896
1645173511304259101,-0.004198079489330339,-0.07137046283068091,2.6927332140895186e-08,0.5100694884970991,0.48970152123766436,0.48982328260469726,0.5099947929343761
1645173511352164809,-0.004162725692600786,-0.07071303396429976,2.8472267959867272e-08,0.5103239903556316,0.48943451575341296,0.48955816838641736,0.5102509964937422
1645173511424094807,-0.004125347011411822,-0.07003591818026454,2.993946044037534e-08,0.5105797406203376,0.4891664883758336,0.4892914679905483,0.5105079181264203
1645173511480233749,-0.004085877898545932,-0.06934394507468973,3.13440436037872e-08,0.5108421075621359,0.4888919347366755,0.4890175736075033,0.5107708194424665
1645173511534322858,-0.004046953571912213,-0.06862393590257948,3.264187021145009e-08,0.5110185992107994,0.48870674289920907,0.4888331640505684,0.5109479899459257
1645173511583701976,-0.004002843237972019,-0.06787191973710234,3.376572377173199e-08,0.5112519136435434,0.4884625292373552,0.4885891627448953,0.5111814436920572
1645173511641589927,-0.003954900048069503,-0.06711349529585069,3.474704235370817e-08,0.511536222342082,0.48816482112257503,0.4882914922891511,0.5114657556556287
1645173511698820784,-0.0039022623905737483,-0.06634826935759922,3.560454628886354e-08,0.5118748491043793,0.4878098976360518,0.4879364808316831,0.5118042919869459
1645173511752128590,-0.0038477940486120973,-0.06556758687613189,3.631992447354012e-08,0.512185101185263,0.48748429670109095,0.4876107735624731,0.5121144560539999
1645173511808791335,-0.00379355373273891,-0.06477358130344552,3.6868604079160785e-08,0.5124383152695969,0.48721807282562485,0.48734462026027886,0.5123677816364909
1645173511870204986,-0.003745331126643194,-0.06397759298223395,3.721664821619478e-08,0.5125654619708244,0.48708345407196363,0.4872108220038667,0.512495825237894
1645173511922035239,-0.003772566289151356,-0.06317094110487566,3.724025370386979e-08,0.5114434165301578,0.48825562404931533,0.48838839473447754,0.5113793632528069
1645173511975237101,-0.0037991911199226555,-0.0623484582050556,3.725925711660598e-08,0.5104968001842535,0.4892413310456345,0.4893777842802535,0.5104364027489389
1645173512036800029,-0.00456578399159956,-0.061502354594893845,3.725925711660598e-08,0.5068137238105739,0.4930508958271787,0.493191537748944,0.5067571120113668
1645173512095194498,-0.00508183869905182,-0.06066842525868366,3.725925711660598e-08,0.504223381142231,0.4956976123801947,0.49583995275684867,0.5041680277845373
1645173512150561847,-0.005114597941261651,-0.05982231145311194,3.725925711660598e-08,0.5036207979794272,0.4963101737607952,0.49645212719043713,0.5035648803006197
1645173512200643198,-0.004736847528531225,-0.05897399078727186,3.725925711660598e-08,0.504457191808387,0.49546158103054183,0.49560213236731454,0.504399930361292
1645173512266754198,-0.004378559406410421,-0.05812001667182588,3.725925711660598e-08,0.5051434390687926,0.4947630561826498,0.4949025838880688,0.5050851974305558
1645173512321268352,-0.004191805611649088,-0.05726993876762109,3.725925711660598e-08,0.5052563653345449,0.494648636706788,0.4947873209812512,0.5051972273174414
1645173512377179216,-0.004108634547630013,-0.05640415289404212,3.725925711660598e-08,0.5050972854544952,0.4948121522597558,0.49494978793637057,0.5050370022328102
1645173512446052605,-0.0040858926047953855,-0.055532450792684096,3.725925711660598e-08,0.5048039060514905,0.49511279693188764,0.4952491009538698,0.5047421745345027
1645173512511751312,-0.004135067571311654,-0.05465996537330675,3.725925711660598e-08,0.5043169195860842,0.49561021476993355,0.49574511348768,0.5042536485618958
1645173512566883314,-0.004115762154222887,-0.05376552278437847,3.725925711660598e-08,0.5041664381476062,0.4957651030910343,0.4958982171556821,0.5041013027403332
1645173512626153039,-0.004124817419811032,-0.052862474839631704,3.725925711660598e-08,0.5039273564347533,0.49600986633112815,0.4961412396159522,0.5038603996060783
1645173512682351538,-0.004173975344150558,-0.05195502039715084,3.725925711660598e-08,0.5035520213751287,0.4963925850200656,0.4965222625519455,0.5034832729062694
1645173512745561014,-0.004136241036928418,-0.051043682371491685,3.725925711660598e-08,0.503562111573405,0.49638443483526035,0.4965120682845496,0.5034912697245154
1645173512801738913,-0.004130975761043926,-0.05013559441613388,3.725925711660598e-08,0.5034934986281007,0.4964560447517253,0.49658169076875047,0.5034206162464445
1645173512860313540,-0.004133320406832571,-0.049216916267075514,3.725925711660598e-08,0.5033535397291494,0.49659969255519093,0.49672360336667915,0.5032788702644297
1645173512940568787,-0.004133159987385315,-0.04829537565697041,3.725925711660598e-08,0.5032458726266691,0.49671054484174554,0.49683272520086513,0.5031694242466582
1645173512997663000,-0.004112280734441578,-0.04737167681716527,3.725925711660598e-08,0.5033352383167872,0.4966220229351404,0.4967422138622794,0.5032567706167367
1645173513052123349,-0.004095283330366151,-0.04641634252115917,3.725925711660598e-08,0.5033976791389192,0.496560581658479,0.49667895993288064,0.5033173711889231
1645173513110185967,-0.004083821099494105,-0.045467816219480664,3.725925711660598e-08,0.503369957537785,0.4965902375370209,0.49670708350738246,0.5032880835316064
1645173513191903057,-0.0040630926447300765,-0.044524671138664006,3.725925711660598e-08,0.5034469157830619,0.49651387919941425,0.49662910285560746,0.5033633925383327
1645173513270469194,-0.004059593309048021,-0.04358236472638203,3.725925711660598e-08,0.5033734869352802,0.4965896605878228,0.4967035572102905,0.5032886029928805
1645173513330488110,-0.004036800692603339,-0.04264566220326092,3.725925711660598e-08,0.5034496806982486,0.49651978013629,0.4966264264355442,0.5033574470533799
1645173513386882593,-0.004027105243327593,-0.041645443295004164,3.725925711660598e-08,0.5034158895808561,0.4965478982337298,0.4966606022208152,0.5033297856066451
1645173513444210727,-0.003999962836015685,-0.04064853061593582,3.725925711660598e-08,0.503528674387185,0.4964350417136186,0.49654627556989334,0.5034410786242449
1645173513502368688,-0.003998497117056827,-0.039661321561878966,3.725925711660598e-08,0.5034330048676062,0.4965331686892333,0.49664329578239136,0.5033442745833112
1645173513557556752,-0.003998457543548461,-0.0386796599608399,3.725925711660598e-08,0.5033333314474824,0.4966354551495199,0.49674434188219485,0.5032433218140373
1645173513612658948,-0.003981178587198896,-0.03770669108312408,3.725925711660598e-08,0.5033675097032532,0.4966023928699233,0.4967097405675197,0.5032759155735077
1645173513672495616,-0.0039655202109467585,-0.036737687681178556,3.725925711660598e-08,0.5033848728329636,0.49658589989444074,0.49669216250261355,0.5032921711465821
1645173513739012055,-0.00393669812316809,-0.03577865441809423,3.725925711660598e-08,0.503496937976253,0.4964733121263016,0.49657857365021024,0.5034032220659634
1645173513800069939,-0.004003650999341213,-0.03482212839371338,3.725925711660629e-08,0.5033048067310925,0.4966690082517177,0.4967733243815618,0.5032101270309631
1645173513864737063,-0.004080387104216213,-0.03387361781682143,3.725925711660629e-08,0.5029710899248077,0.4970075793211109,0.49711122008047637,0.5028757139366689
1645173513927380713,-0.004019706128392952,-0.03290840518134523,3.725925711660629e-08,0.503141332669392,0.496836154543703,0.4969389218350734,0.5030450704094834
1645173514008605416,-0.0039694627105682995,-0.031938705308238335,3.725887360029349e-08,0.5032432409293884,0.4967337382411841,0.4968357320528269,0.5031461905921076
1645173514065481097,-0.004006956070817731,-0.030961377293381137,3.725887360029349e-08,0.503014787131448,0.4969655557909346,0.4970670372850309,0.5029172106114354
1645173514128475632,-0.003947257062021419,-0.029960627498840195,3.725858707011988e-08,0.5031905421801857,0.49678842797026396,0.49688912694788157,0.5030921701002811
1645173514208778598,-0.00393388592185177,-0.02896890613373895,3.725792584539974e-08,0.5032014565497887,0.49677806753061177,0.49687808471277517,0.5031023898560608
1645173514278460185,-0.003921038696605367,-0.027977091908741893,3.7256972376313265e-08,0.5032166310831112,0.49676334794262683,0.4968627272119867,0.5031169134998913
1645173514337861444,-0.003910646938186778,-0.02696553383509962,3.7256972376313265e-08,0.5031951128658808,0.4967856077304782,0.4968845273285092,0.5030949262726375
1645173514396900858,-0.003894468780960946,-0.025932672641131495,3.725668906210321e-08,0.5032383753602013,0.4967423582319113,0.49684071964928167,0.5031376217312737
1645173514472047525,-0.003880277219630268,-0.02490972179200148,3.725614752168986e-08,0.5032712035338881,0.49670960713648005,0.4968074740470518,0.5031699470386295
1645173514537024104,-0.0038666582679765743,-0.02389663395554257,3.7256147521689925e-08,0.5032822563076693,0.49669889815180246,0.4967962865569251,0.5031805090858452
1645173514602026919,-0.005586277104641218,-0.0228635297556829,3.7256147521689925e-08,0.49697466011155245,0.503006179557208,0.5031060491380406,0.49687551142612607
1645173514678440678,-0.006932611867109791,-0.021833040114542155,3.7256147521689925e-08,0.4921353010631441,0.507740716870819,0.5078408835285525,0.49203642842367734
1645173514743624124,-0.007162906444092275,-0.02080056288424153,3.7256147521689925e-08,0.49114783277027824,0.5086974017766115,0.5087959132302605,0.4910473281374852
1645173514818708479,-0.0071939514538229355,-0.019746031689380904,3.7256147521689925e-08,0.49122327316814873,0.5086263407831866,0.508723023523185,0.4911209898761195
1645173514892663914,-0.007179856120260835,-0.01869867970192759,3.7256147521689925e-08,0.49151315466717593,0.5083481903357039,0.5084429023721709,0.49140894497240584
1645173514956052894,-0.00716185800034782,-0.017634905892331555,3.7256147521689925e-08,0.49181180257633944,0.5080614708197936,0.5081539813743872,0.4917054239363167
1645173515015668329,-0.007213026455692203,-0.01655944895501017,3.7256147521689925e-08,0.4917311568235306,0.5081410682037278,0.5082319838333611,0.49162320411323873
1645173515073313006,-0.007324051260694592,-0.015491320381003497,3.7256147521689925e-08,0.49134365895506155,0.5085162668846386,0.5086065858252734,0.4912351330814157
1645173515136972784,-0.007015203806629462,-0.014428692381006924,3.7256147521689925e-08,0.492008635708404,0.507873534731709,0.5079633428559205,0.4918996009574591
1645173515204137678,-0.007008550657939942,-0.013384978483877808,3.7256147521689925e-08,0.4920552587804631,0.5078285878966735,0.5079181738000164,0.4919460095833819
1645173515286745857,-0.00721854970431664,-0.01234523233947116,3.7256147521689925e-08,0.49150734102642,0.508359108396585,0.5084483778917095,0.49139779979834186
1645173515357387669,-0.007411324989683986,-0.011298601220062428,3.7256147521689925e-08,0.49114282437085893,0.5087117772007473,0.5088004649868967,0.4910327286804669
1645173515425640294,-0.007608456243306802,-0.010229433127338155,3.7256147521689925e-08,0.4906854924562839,0.5091532467409782,0.5092414964679631,0.49057498621629564
1645173515492101543,-0.0075738580588787015,-0.00915353966386448,3.7256147521689925e-08,0.49103745732093235,0.5088145500261005,0.5089021133420869,0.4909262757537862
1645173515571225788,-0.007890906501342413,-0.00808338150218458,3.7256147521689925e-08,0.48963847181919573,0.5101602255959312,0.5102482398464947,0.48952777742230286
1645173515634908840,-0.008924382665679567,-0.0070433741208824835,3.7256147521689925e-08,0.4848520459151062,0.5147084223025983,0.5147984782320948,0.48474349958779195
1645173515694814155,-0.010463346947009339,-0.006037263682026174,3.7256147521689925e-08,0.4778241565898469,0.5212358393136183,0.521328055929829,0.4777178385769669
1645173515753124948,-0.01021200005532702,-0.004956362221272535,3.7513187795223115e-08,0.4774759010090876,0.521552000958088,0.521647231759688,0.477372433064189
1645173515812187637,-0.009865191742947439,-0.0038716926971713713,3.7513187795372e-08,0.4776268870446237,0.521410322321118,0.5215092537486397,0.4775268901366517
1645173515877668120,-0.009690804932962194,-0.002809363128948449,3.7513187795501206e-08,0.4775441970229684,0.5214833437894977,0.5215851778284284,0.4774469230286172
1645173515940821549,-0.009508113995473872,-0.001756089863722102,3.751318779569478e-08,0.47760240475127985,0.5214270621858924,0.521532095863042,0.47750815153322973
1645173515999376417,-0.009439295183888075,-0.0007059957556373715,3.7513187796000645e-08,0.4767867563141875,0.5221677639037513,0.5222782111644018,0.47669768772887844
1645173516078861193,-0.009307152149405626,0.00034260619503482723,3.751318779655421e-08,0.47578703157298685,0.5230712426528653,0.523189571288887,0.47570563186817366
1645173516138477316,-0.009384157038267078,0.0013768580703823962,3.751318779830301e-08,0.47437871002550697,0.524339690664591,0.5244674166528988,0.4743065012602362
1645173516200813667,-0.009355414968337313,0.002419103161807028,3.7513187800656136e-08,0.47255300339891215,0.5259792106560824,0.5261136001530065,0.472487046034396
1645173516261814560,-0.009483330367121802,0.0034496315853032476,3.751318780349572e-08,0.4707625366743845,0.5275778512215833,0.5277168838153714,0.47070068568093704
1645173516360339730,-0.009590136359269454,0.0044744792487243475,3.751318780650132e-08,0.4693437777942627,0.528837884415162,0.5289795700944901,0.4692840554245886
1645173516418435915,-0.009701897984039184,0.005486339225053323,3.751318781000514e-08,0.4678855924543328,0.530126479037692,0.5302702245018956,0.4678274015098527
1645173516497261312,-0.00997855336853131,0.006475606905283612,3.751318780238067e-08,0.46373437015574,0.533562600921968,0.5339171403028636,0.46388993535584494
1645173516582396794,-0.010054533458611048,0.007534571107546983,3.7513187869550315e-08,0.46205433054557593,0.5353335853540023,0.5353524116934532,0.46186745210082314
1645173516642079025,-0.010280772376653716,0.008550979470515672,3.751318768780241e-08,0.4571829872835156,0.5392612466209414,0.5395327735696354,0.45725858141274905
1645173516718043642,-0.010527315585370232,0.009637204279263751,3.7513187742849605e-08,0.45465432244076304,0.541581181419272,0.5416521222093993,0.4545242012527872
1645173516781036360,-0.010801365690956011,0.010688709926670271,3.751318773020009e-08,0.4510768117560328,0.5445430483374989,0.544636197971488,0.45097005472921703
1645173516860737634,-0.011113377004321835,0.011737904502391323,3.751318772801031e-08,0.44725788577889547,0.5476655871064336,0.547778195714187,0.447170925495008
1645173516925859017,-0.011475208494352945,0.012775196077775481,3.7513187734940144e-08,0.4427260603944687,0.5513186400276869,0.5514492965955528,0.4426568263224677
1645173516993733283,-0.011908808554677092,0.013794041569296457,3.7513187750416706e-08,0.43709699063284907,0.5557742635405145,0.5559242616494184,0.4370462264740983
1645173517063164419,-0.012417455302675642,0.014786408951476909,3.751318777692805e-08,0.4305384462032909,0.5608531446875817,0.5610221441926649,0.43050499435008305
1645173517137937401,-0.012854682420088456,0.015732866015658962,3.751318782484123e-08,0.4219442025288773,0.5673263605488242,0.5675185861915022,0.42193191975233096
1645173517211467008,-0.013427501950888335,0.016707580975592978,3.751318790129082e-08,0.41508795571050516,0.5723451330224238,0.5725569986051151,0.41509218383139135
1645173517311386750,-0.014054509703026519,0.017676335341466044,3.751318799390471e-08,0.4080489904560143,0.5773701755345493,0.5775995995510834,0.4080666665992862
1645173517386844244,-0.014703885001787164,0.01861488201275413,3.75131885135038e-08,0.40136425923908614,0.5820796753531253,0.5822618530956337,0.4013242048218524
1645173517481410546,-0.015500228788554171,0.019579150815256914,3.7513188536054e-08,0.393023658006777,0.5877251593575796,0.5879283668369931,0.39300353277478206
1645173517564063207,-0.016084547178889297,0.020538046078477326,3.751318775575086e-08,0.3852666718308386,0.5925670802121898,0.5930851654882446,0.38559542723295376
1645173517649359665,-0.016974394754905184,0.021502881573638128,3.7513188381462406e-08,0.37636009486261446,0.5985261638699242,0.598736128654372,0.3763436706019185
1645173517770404775,-0.01804249993199248,0.022361894360753594,3.751318845174321e-08,0.36465711131522505,0.6057138209615552,0.6059410370648369,0.3646524617552605
1645173517863705108,-0.018915943318245608,0.023190232048820095,3.751318765620436e-08,0.3534269357443338,0.6120887861208913,0.6126254796419109,0.35373258358389303
1645173517936629509,-0.020098253733550495,0.024103521126656625,3.7513188064010287e-08,0.3426242974438658,0.6184218596658296,0.6186781661791839,0.3426373023792211
1645173518044712385,-0.021194796676051827,0.02490502343627909,3.7513188064010287e-08,0.32843918575100517,0.6260582683582694,0.6263328679649974,0.3284598672443808
1645173518134077861,-0.022731395685906923,0.025320865641428048,3.751318804183362e-08,0.3079764983508666,0.6361262703761527,0.6367470398792797,0.30829701880789095
1645173518209851774,-0.023698895922553483,0.026189525549665894,3.751318804183362e-08,0.2966587627442515,0.6417235013447762,0.6420054310634993,0.2966707818336939
1645173518277516722,-0.024916558434429678,0.026887756771865133,3.751318804183362e-08,0.28252103336624756,0.6480641480680347,0.648359163393233,0.28253339791702703
1645173518358258188,-0.026160188267633395,0.02756875484758689,3.751318804183362e-08,0.26912714081028966,0.6537330921816545,0.6540398685643287,0.2691383967297135
1645173518432196131,-0.027455472532400806,0.028185766876629062,3.751318804183362e-08,0.2557620443367877,0.6590707244864484,0.6593882040975062,0.25577089963214056
1645173518514658737,-0.028541284967164952,0.028822698018235386,3.751318804183362e-08,0.24351724561396546,0.6636873518133357,0.6640142927868709,0.24352303608967857
1645173518597623777,-0.029869759264393697,0.029319086625149912,3.751318804183362e-08,0.22959885557385992,0.6686246369850609,0.6689611607833058,0.22960057861254435
1645173518682356507,-0.031337216673987985,0.02967666223737149,3.751318804183362e-08,0.21370848827989064,0.6738663387284477,0.6742128372083016,0.21370514666092366
1645173518758313281,-0.03290772054253878,0.029942910312396983,3.751318804183362e-08,0.19718593540298482,0.6788796628254226,0.67923594592762,0.1971766721524013
1645173518842939662,-0.03412124907269701,0.030427165525934448,3.751318804183362e-08,0.1847967241931428,0.6823470548393771,0.6827198916401278,0.18478695040071932
1645173518909528658,-0.03567238640603984,0.03057033309054491,3.751318804183362e-08,0.16810580128298103,0.6866346646758157,0.6870345209345655,0.1680977212360221
1645173518985968331,-0.037343605824715506,0.03038400886864826,3.751318804183362e-08,0.14755142964511378,0.6913226665017469,0.6917599516684244,0.14754563923847813
1645173519069354459,-0.03898606190636432,0.030222160530595725,3.751318804183362e-08,0.12876772715067722,0.6950421289771409,0.6955248210362123,0.12876542514942171
1645173519181198364,-0.04070784412773311,0.0295014051837008,3.751318804183362e-08,0.10292769348584803,0.6993145972414965,0.6998377453629941,0.1029179972788165
1645173519251232280,-0.04292556615797391,0.02732584453971014,3.751318804183362e-08,0.06267644051478946,0.704585574801627,0.7040952290232819,0.06229558613982008
1645173519318521615,-0.04431566548154817,0.026733693630878026,3.751318804183362e-08,0.04114319571550783,0.7056520714607506,0.7061681194856733,0.04109718374206929
1645173519462333019,-0.045817661972323794,0.02593569465179082,3.751318804183362e-08,0.018494186740487042,0.7065975589933321,0.7071337709216737,0.018430537256440227
1645173519535664451,-0.0472159467014319,0.023647994933324153,3.751318804183362e-08,-0.019857976688977874,0.7065520194221449,0.707100965292516,-0.019953182570606354
1645173519623823331,-0.04851436867065937,0.022636812120932808,3.751318804183362e-08,-0.04481448980019065,0.7057099065253704,0.7056452591837151,-0.045055049966056915
1645173519710185046,-0.0495599230520397,0.021441085081366273,3.751318804183362e-08,-0.06916919356359326,0.7037667686233661,0.7036413985241827,-0.06940274004760333
1645173519799656399,-0.049354017248228174,0.021869333429300614,3.751318804183362e-08,-0.0779946461830767,0.7028648836892658,0.7026944177163023,-0.0782198552388953
1645173519893350903,-0.050346576902593816,0.02138383782708892,3.751318804183362e-08,-0.09313694856505254,0.7010372991148396,0.7008266259299921,-0.09335017112646411
1645173519972415762,-0.051237263646027466,0.020873738559490273,3.751318804183362e-08,-0.10645701152440934,0.699155354975046,0.6989083607604035,-0.10665738402103446
1645173520089953969,-0.05169670524096962,0.022270185292917404,3.751318804183362e-08,-0.09842676396874368,0.7003464197539371,0.7000720421545058,-0.09862150001951259
1645173520177116018,-0.053075461610169634,0.022468023587712674,3.751318804183362e-08,-0.09893351374593688,0.7002939169800113,0.6999827613718441,-0.09911974314393199
1645173520252999162,-0.05367604350042931,0.023704656776638966,3.751318804183362e-08,-0.08675663086897781,0.7019338977788169,0.7015722337062086,-0.08693958270993729
1645173520316617130,-0.05433785532949381,0.025169761595338715,3.751318804183362e-08,-0.07105586058740855,0.7036289677412527,0.7034076354649106,-0.07123930657453742
1645173520399439913,-0.05484739396755453,0.026905504670464018,3.751318804183362e-08,-0.05145684755512758,0.7051663365515896,0.7052842691130996,-0.05164039480576292
1645173520476319609,-0.0551300861554352,0.029242107739928493,3.751318804183362e-08,-0.02351334138225232,0.7064215067914184,0.7070038317515522,-0.02369302446294891
1645173520555602465,-0.05459614677087319,0.03229840603563606,3.751318804183362e-08,0.010809074759321389,0.7064541035936571,0.7075958584880027,0.010670729551038975
1645173520625977621,-0.05364971039007284,0.0359149782264375,3.751318804183362e-08,0.050570686322285154,0.7043998817065155,0.7061937421076051,0.05053524458032086
1645173520682530497,-0.05213668997403826,0.039920146724655145,3.751318804183362e-08,0.09519392499085455,0.6994018567778119,0.7019147828934674,0.09534567077847102
1645173520753118904,-0.05006760662382919,0.044016268343787184,3.751318804183362e-08,0.14220611321639812,0.69096593941294,0.6942585174866319,0.1426485290226912
1645173520832531176,-0.04740438857611503,0.048100148365368765,3.751318804183362e-08,0.18954788199068714,0.679035767631199,0.6831733668799623,0.19041054985542322
1645173520915141418,-0.04425957072479945,0.05188764479300481,3.751318804183362e-08,0.23538847336461596,0.6640173452487558,0.6690280598516982,0.23680094372053875
1645173520979043630,-0.04146876260789418,0.054737018866985655,3.751318804183362e-08,0.27302664816036165,0.6488702976956695,0.6547953372425559,0.2750760849075288
1645173521076931020,-0.04090314713831364,0.05545431418448118,3.751318804183362e-08,0.2866446502191539,0.6422370744948068,0.649364168341068,0.28929666696973716
1645173521150612384,-0.04038385539447586,0.05614554709513344,3.751318804183362e-08,0.30015980601185277,0.6347611574168585,0.6439767674565793,0.3037701217465391
1645173521232429651,-0.039798394360001446,0.05681121312126063,3.751318804183362e-08,0.3133490623209112,0.6266064752827475,0.6386826764578166,0.318215538698242
1645173521310017131,-0.039169155883558134,0.057466788012378076,3.751318804183362e-08,0.3265740606555957,0.6181636814528086,0.632854552515753,0.3327433864101689
1645173521394701887,-0.038549747508342946,0.05801909833445452,3.751318804183362e-08,0.33871376483783877,0.6102799010651099,0.6269605759746665,0.34605182276480834
1645173521471691325,-0.03789894569185839,0.05855935729965736,3.751318804183362e-08,0.35094642367966206,0.6024036440341828,0.6203654402983724,0.35929539079174705
1645173521556182231,-0.0371202329511298,0.05911534636626223,3.751318804183362e-08,0.3650085315208187,0.5937966075985023,0.611784697699617,0.3740238553650141
1645173521634630168,-0.036235615737156376,0.0596816350637336,3.751318804183362e-08,0.3801548729613807,0.5841232100448116,0.6019372182974284,0.38981268999227114
1645173521725741937,-0.035428159605412506,0.060163719121652914,3.751318804183362e-08,0.39546606155066,0.5740078585432848,0.5912533567520669,0.40563658688729043
1645173521802769363,-0.0344247399010686,0.06065443767004458,3.751318804183362e-08,0.411864987507631,0.5626870757557936,0.5790361769405775,0.4224542491640585
1645173521886137914,-0.03309898520044016,0.061188675132265016,3.751318804183362e-08,0.4324126333651852,0.547173640141974,0.5628659465785671,0.44362399419122567
1645173521969654054,-0.03161512488469982,0.061644078417754516,3.751318804183362e-08,0.4540828938864816,0.5292541010485476,0.5445439176583446,0.4660158191995951
1645173522054386306,-0.030531925431826167,0.06187832160796098,3.751318804182791e-08,0.47083077619853486,0.5143025953713852,0.529318399407614,0.4833562378071681
1645173522218677175,-0.030105982866224908,0.06181983540147512,3.751318804180884e-08,0.47815237109678055,0.5073907266827473,0.5223470064436708,0.49099752071697017
1645173522288232531,-0.029799006134200966,0.06176677186984014,3.751318804178976e-08,0.48543947302559776,0.5003648339986341,0.5151685355215193,0.49858292282704425
1645173522354938154,-0.029421539701987055,0.06170149395226828,3.751318804177321e-08,0.49345576076818837,0.4924178647422432,0.5070189504554035,0.5069100931392821
1645173522442774607,-0.0285685592928044,0.06167039635374279,3.751318804175385e-08,0.5056430758874942,0.47986199142850744,0.49411717008075434,0.5195245626731076
1645173522546530017,-0.027262875923216925,0.06167116921779284,3.751318804173237e-08,0.5216477216956105,0.46239146703431994,0.47614740228697316,0.5360610384638975
1645173522866894991,-0.025680905878938273,0.06200446874568245,3.7513188041732354e-08,0.5369634108861159,0.4444942007413405,0.45773401666290225,0.551882932211631
1645173522943364940,-0.02514982748586307,0.0620171888059497,3.751318804173371e-08,0.5440094036440415,0.43575034227362763,0.4488195649302508,0.5592284024359705
1645173523024848735,-0.025136186824440417,0.061980553913284636,3.751318804173371e-08,0.5441668390881439,0.4352520737274645,0.4486125852435249,0.559629191441867
1645173523096274082,-0.025268560617410472,0.06203255445279664,3.751318804173371e-08,0.5424790525699164,0.4370034096377398,0.45075277198333513,0.558181364824348
1645173523195986142,-0.025590722906526718,0.06203950281712947,3.751318804173371e-08,0.5384992451904194,0.4415523641747792,0.45575455701837986,0.554380606062287
1645173523272033723,-0.027272751301603487,0.06126211698360184,3.751318804173371e-08,0.5216712119698128,0.4611201529450693,0.47605816187122596,0.5372112970383708
1645173523361074431,-0.027977126018005546,0.06111917770836057,3.751318804173371e-08,0.5115937362864866,0.4722069830426475,0.4874985590451393,0.5269132462627061
1645173523437664396,-0.02863635962011986,0.060881783704473565,3.751318804173371e-08,0.501037676551143,0.4833888386228419,0.49897319108614907,0.5160641742539337
1645173523531111841,-0.02925851587896562,0.060596372216256064,3.751318804173371e-08,0.4898791817832461,0.49473527169589315,0.5105725330926378,0.5045503806823773
1645173523610096065,-0.030086138512649692,0.06014235445739527,3.751318804173371e-08,0.47512074812974286,0.5090309932874727,0.5251432721904251,0.48925685099192207
1645173523700864597,-0.030813736856752597,0.059606156273676915,3.751318804173371e-08,0.460354147699449,0.5225875229877209,0.538886106042666,0.47389672316617826
1645173523776226269,-0.03155237166040691,0.05894933118878071,3.751318804173371e-08,0.44445545940166653,0.5363946987698092,0.552817360069532,0.457310658246065
1645173523863332078,-0.03225504207508516,0.05819328800541534,3.751318804173371e-08,0.4289605440789294,0.5491364735365402,0.5655800443906235,0.44109091856720223
1645173523922985802,-0.03363666901752841,0.05697900757432637,3.751318804173371e-08,0.4085946410266514,0.5647699505409103,0.5812411107408932,0.4198143559658346
1645173523993725164,-0.034851418976941315,0.05572760888738769,3.751318804173371e-08,0.3893239452422076,0.5785883070626078,0.5949434630570068,0.3996307199868402
1645173524067353685,-0.035606984442103556,0.05456777030421712,3.751318804173371e-08,0.3741362279701446,0.5889276917822474,0.6049899663079533,0.38363185143963713
1645173524140507000,-0.036109106371780615,0.053474255933817896,3.751318804173371e-08,0.3617736753460734,0.5969604969922206,0.6127062883926991,0.3706062290645333
1645173524201399924,-0.03593302404587086,0.052717225707779286,3.751318804173371e-08,0.355868010205943,0.6008333039376849,0.6161788318980019,0.3642539599128584
1645173524273788590,-0.03568662788071829,0.05196866680117809,3.751318804173371e-08,0.35172276921648815,0.6036088177262968,0.6185100911901148,0.3597120457723636
1645173524345316147,-0.03518545178822445,0.05134442868156792,3.751318804173371e-08,0.3503461397675142,0.6047694602971779,0.6191541560716003,0.35799387321729653
1645173524424098608,-0.034422374727802324,0.05082010344218904,3.751318804173371e-08,0.35085599665262024,0.604849199335023,0.6186712476087912,0.35819464409571466
1645173524504719856,-0.03352921514922914,0.05031579173332768,3.751318804173371e-08,0.35233511600640904,0.6043717412626382,0.6176105473817083,0.3593772059477053
1645173524586927546,-0.0327981300771145,0.04966477789429865,3.751318804173371e-08,0.35244702638150477,0.604683706363416,0.6173655040380324,0.35916367198994253
1645173524648844567,-0.032026487021454504,0.04904121404075191,3.751318804173371e-08,0.3533051505154722,0.6045517640162718,0.616681001110891,0.3597181926354553
1645173524720829377,-0.03168466578119836,0.04816842079052303,3.7513188041725895e-08,0.3503730067469862,0.6066176761513606,0.6182426676043338,0.3564123385592482
1645173524811901692,-0.03129730183806999,0.047309633198166695,3.751318804173805e-08,0.3478504608215876,0.6084065417057831,0.6195516364809807,0.35354958160002503
1645173524898410463,-0.030970239094153227,0.04633310873177,3.751022821671997e-08,0.3424244502881669,0.6117585327424115,0.6225352357540886,0.34777417055654875
1645173524972530079,-0.031177692727033177,0.04506244153375974,3.751022821671997e-08,0.332784537461533,0.6172896792145287,0.6277947842022875,0.3377596963673091
1645173525044459536,-0.03133588604737238,0.043799081627199435,3.751022821671997e-08,0.32332968241696247,0.622484408396637,0.632769023777181,0.32798542699227384
1645173525112452781,-0.03161115817901161,0.042475357585118834,3.751022821671997e-08,0.3129197130361251,0.6279417517485424,0.6380485036239163,0.31727671932815715
1645173525193455300,-0.031622566453866074,0.0411991071229725,3.751022821671997e-08,0.30323342811332105,0.6328148093251061,0.6427622122035199,0.307329861446469
1645173525277825339,-0.0314204245641177,0.040041794957898606,3.751022821671997e-08,0.2956780796535621,0.6365013259834532,0.6462964362942294,0.2995687761884783
1645173525366463878,-0.03150145959693569,0.038593439518600337,3.751022821671997e-08,0.2826484498159085,0.6424796214918088,0.6522047991437517,0.2862842813677693
1645173525437844040,-0.031470891034399075,0.03712731320429551,3.751022821671997e-08,0.27055436809818345,0.6477409380634535,0.6574005773679079,0.27396439903025216
1645173525507553797,-0.03133097560515142,0.03576706111813698,3.751022821671997e-08,0.2605976697394353,0.6518844790004498,0.6614649381541402,0.2638173916886904
1645173525581259526,-0.031012733175889234,0.034525353409456096,3.751022821671997e-08,0.25296181564243675,0.6549619885760486,0.6644446907543426,0.2560241517430567
1645173525645670006,-0.030449837349036606,0.03356262488482945,3.751022821671997e-08,0.2501111670202085,0.6561334836519946,0.6654927463069775,0.2530862706179054
1645173525722991009,-0.029862316932106663,0.03262416883329754,3.751022821671997e-08,0.2481981671782932,0.6569364472664393,0.6661685428115497,0.25110086943421184
1645173525804378402,-0.02920266384581785,0.031722364982559835,3.751022821671997e-08,0.24759050502103816,0.6572411178914914,0.6663424263719557,0.25044126176191545
1645173525870626992,-0.028579112958980177,0.030907557840492553,3.751022821671997e-08,0.24852172440811526,0.656963837258681,0.6659296387551811,0.25134276448498716
1645173525950145647,-0.02794043066221321,0.030241449114134504,3.751022821671997e-08,0.25144154797009544,0.655925935349752,0.6647483925550517,0.25425949320610597
1645173526033547064,-0.027269621283894315,0.029609772689530856,3.751022821671997e-08,0.2549727456284495,0.6546363253036728,0.6633116964349534,0.25779405336852523
1645173526111526186,-0.02666722641873291,0.029118882443734163,3.751022821671997e-08,0.2601244050337527,0.6526825713737928,0.6612021507190238,0.2629685738168406
1645173526195701762,-0.026174865912526494,0.028634602882212024,3.751022821671997e-08,0.265003195028942,0.6507973496134677,0.6591555648387121,0.2678620124293342
1645173526266655708,-0.025633774096798914,0.028276367675440776,3.751022821671997e-08,0.27152069700383896,0.6481904380052937,0.6563726407425617,0.27440959105265755
1645173526338267160,-0.02503168532246006,0.028046942512023314,3.751022821671997e-08,0.2799280678467954,0.6446962214273071,0.6526833369522476,0.2828630774310914
1645173526418008002,-0.024326457655483306,0.027964758819196536,3.751022821671997e-08,0.29108977650878387,0.6398423715236418,0.647595028168617,0.29409039614777005
1645173526489954901,-0.023611857739481386,0.02793745489263725,3.751022821671997e-08,0.30269887357041836,0.6345517141915479,0.6420515075373758,0.3057570532706432
1645173526562983343,-0.022888600492172975,0.027973568885740346,3.751022821671997e-08,0.31477288259608044,0.6288965951737228,0.6359477511406064,0.3177696693837445
1645173526643475376,-0.022276576054717785,0.027926403792780892,3.751022821671997e-08,0.324669189779926,0.6239894423416662,0.6307615408699037,0.3276689970277994
1645173526713522214,-0.021575292390301672,0.02797997699652898,3.751022821671997e-08,0.3362196557809091,0.6179124182084043,0.6245098091893277,0.3393052972128714
1645173526785200386,-0.02092249691878287,0.028007229220438634,3.751022821671997e-08,0.34683371024230053,0.6120781386087054,0.6185197528335962,0.3500000643307455
1645173526862991274,-0.020274609090353297,0.02804310529965863,3.751022821671997e-08,0.3570227144262754,0.6062242349268228,0.6125518698301831,0.3602876144674217
1645173526929746244,-0.019610202531676214,0.02808755367850942,3.751022821671997e-08,0.36712009713218996,0.6002133040690567,0.6064021923577634,0.3704635002316046
1645173526997919869,-0.0188157854840145,0.028215495486220314,3.751022821671997e-08,0.37926406380642486,0.5927175388764655,0.5986812610631881,0.3826557678450031
1645173527077243965,-0.018258100341499956,0.02821588768019487,3.751022821671997e-08,0.3875185153990713,0.5874988299993213,0.5932060213051477,0.3908722825420618
1645173527143075376,-0.017427001339955506,0.02835998701291565,3.751022821671997e-08,0.399926648755602,0.57928364578543,0.5846909937070086,0.4032686142245154
1645173527234955394,-0.01652718920584723,0.028523507200207698,3.751022821671997e-08,0.41313799029578574,0.5701137884303318,0.5751984479546216,0.41645409673404005
1645173527315232077,-0.013223779898510259,0.028994629599935505,3.751022821671997e-08,0.4349649627549932,0.5538443361076796,0.55852921136338,0.4383001854788433
1645173527379830286,-0.012542492428970566,0.029023185330625326,3.751022821671864e-08,0.44519154497007585,0.5460120214068414,0.5501873427070538,0.448295938740604
1645173527464049437,-0.012212373122180209,0.029008433018299883,3.751022822280551e-08,0.4537892452494655,0.539232505701499,0.5429333151176859,0.4566476114315276
1645173527530422038,-0.011608583884041792,0.028970408746616688,3.751022822280069e-08,0.46124672552238716,0.5331961191188205,0.5364550813669239,0.46386345235112875
1645173527591062455,-0.010972868187961539,0.02893037394539163,3.7510228222793325e-08,0.46901301173542004,0.5266765285383199,0.5295348881528573,0.47141428843283095
1645173527654105354,-0.010305718537770653,0.028888359752943828,3.751022822278313e-08,0.47723004107156775,0.5195197178998033,0.5220095247998121,0.47943383968010594
1645173527715932781,0.004076043734631369,0.029551785997682302,3.751022822278313e-08,0.5361737623364815,0.4587282539900784,0.46065608739170655,0.5384069601352844
1645173527782375416,0.008398915828521085,0.02873956850508188,3.751022822278313e-08,0.5590375381988834,0.4309195355834154,0.4324406402589353,0.5610530076468218
1645173527867120293,0.009146494902729008,0.028354462134123685,3.751022822278295e-08,0.5637209270912786,0.42503046355924506,0.4263386076128292,0.5655114614795297
1645173527933221658,0.009103383865929456,0.02816643896767428,3.751022822278276e-08,0.5640499295125857,0.42481258484439005,0.4259621539028115,0.565630787897149
1645173527995618076,0.009066811869014292,0.028006934108572374,3.751022822278261e-08,0.5638719858213064,0.4252406885281689,0.42625543793963777,0.5652654615779297
1645173528093454097,0.009030303472311825,0.02784770651268193,3.751022822281393e-08,0.5640017661934555,0.4252382956859801,0.4261338889063369,0.5652294298232394
1645173528158336683,0.009033780396364193,0.027707854198463278,3.7510228836600714e-08,0.5641330339457722,0.42521150109007677,0.4260055112551882,0.5652153604884289
1645173528228766196,0.00904303904499628,0.027626194406991433,3.7510229992472726e-08,0.5647563232000508,0.4245085815766672,0.4252167824333282,0.5657149878784993
1645173528307870645,0.009073928361532393,0.027638057496560467,3.7510234987077085e-08,0.5653362073688403,0.4238484748645816,0.42448086600206864,0.5661832189237993
1645173528369017313,0.00910310710487379,0.02776015276520035,3.751023589085634e-08,0.5655686219563804,0.4236413255662066,0.42420538713127526,0.5663125909422024
1645173528433936429,0.009116636993893468,0.027990691518696976,3.7510236335184906e-08,0.5654933073279974,0.42383198834395586,0.42433765432320997,0.5661460236962942
1645173528493714036,0.009195671547546136,0.028283745602511647,3.751023666862053e-08,0.5655683921539781,0.423810801856072,0.4242657732583977,0.566140752523547
1645173528554761688,0.009277809919262664,0.028652982661764054,3.751023691852094e-08,0.5655219904175167,0.42394081967644015,0.4243530288755262,0.5660243516408476
1645173528613025273,0.009372063384757207,0.0290752574403919,3.751023712026553e-08,0.5656185404776697,0.423873136681848,0.42424715214482267,0.5660579339293872
1645173528694961508,0.009481212862078463,0.029542008436877265,3.7510237298745916e-08,0.565859184179304,0.42360756944070793,0.42394685111648084,0.5662411837908699
1645173528757798752,0.00962202305416144,0.03005016644631665,3.751023749444265e-08,0.5662538326273419,0.4231312446504507,0.42343855533865743,0.5665830360045333
1645173528814847632,0.009817022212347381,0.030651371008424147,3.75102376384906e-08,0.5662751920182512,0.42314735622352684,0.42342766606722754,0.5665577935520696
1645173528876888545,0.010040444829025651,0.031279879307066154,3.7510237755127585e-08,0.5664365364833028,0.42297303406880377,0.4232280492099081,0.5666758164501138
1645173528946023290,0.01025760289557567,0.0319177332089419,3.751023786666274e-08,0.5667618659750635,0.42257396955493415,0.4228069005513227,0.5669625669982372
1645173529029759132,0.010488362686429161,0.032593554566277085,3.7510237971124964e-08,0.5671863178612102,0.42203905163853417,0.4222510421732068,0.5673506650271299
1645173529097565299,0.010691399699763184,0.03332045493487383,3.7510238070398516e-08,0.5674857093769262,0.42166782561693483,0.42186130477112627,0.5676171720704484
1645173529155869667,0.01083185182391597,0.03411123331423867,3.7510238138262584e-08,0.5677730898539655,0.42130853439483773,0.42148596176282865,0.5678753572049194
1645173529220009485,0.011086199371083634,0.034909447649128754,3.751023819693759e-08,0.5682775962028725,0.42065347290340127,0.4208160739403247,0.5683529372684196
1645173529289717499,0.011355141649858024,0.035711220978363205,3.751023825213666e-08,0.5690572145608664,0.41962070259032275,0.4197705845754064,0.5691089604276586
1645173529374639821,0.011645714955879613,0.03654260772887716,3.75102383123953e-08,0.5699765951549852,0.41839694560967083,0.41853128050937993,0.5700019685187093
1645173529441519926,0.011983978543255981,0.03736922508392913,3.75102384224332e-08,0.5719573406648821,0.41572667850947875,0.41583306844389156,0.5719431688756909
1645173529511606846,0.012443350726991714,0.03814586945782616,3.751023855903828e-08,0.57648846746199,0.4094846015703168,0.40954530668076866,0.5764165592138005
1645173529603516444,0.012973658119570668,0.03888778563373226,3.7511083137588744e-08,0.5822554618548541,0.4013305334773687,0.4013286933754859,0.5821062273438441
1645173529676224819,0.013701080684093453,0.03954200949569171,3.751108341735798e-08,0.5898703132259175,0.3901625380162612,0.39008497431487804,0.5896269331681051
1645173529759926601,0.014227076950207206,0.040234066950162184,3.7511083773161524e-08,0.5968186424399757,0.379549326201253,0.3794086016465973,0.5964888347763514
1645173529826481236,0.014905115335701255,0.04087665064536391,3.7516345208294975e-08,0.6040775423123661,0.36795837011018145,0.36778028225730475,0.6036842094360626
1645173529946857585,0.015627386549583476,0.0415109771525402,3.751634566451738e-08,0.6108616416396716,0.35663498373905184,0.3564357596699211,0.6104204226393923
1645173530032493556,0.016423275221725785,0.041490947563928834,3.7516351216150645e-08,0.6245993433971802,0.33135143516361226,0.3315943599703878,0.624601526638105
1645173530126671760,0.017210550249900564,0.0422010176503054,3.751635010894386e-08,0.6302308529095977,0.3222624826695189,0.3214579519544436,0.6289839023613961
1645173530205250016,0.018051516670621433,0.04274956223569767,3.751635217288439e-08,0.6364189417229129,0.3098122095642456,0.3090854116964819,0.6351799223036105
1645173530332912888,0.0188588315554184,0.04314864316710958,3.719430111472242e-08,0.6432301503966485,0.2953721195364295,0.29471590305023004,0.6419912936407676
1645173530394735483,0.019628188432754802,0.04331403425694387,3.7194301114722025e-08,0.6507618528187021,0.2782793172110714,0.2777307792418395,0.6495654291834094
1645173530525303198,0.020226323477436504,0.04342690840455392,3.7847920625810616e-08,0.6570916951796519,0.262824807894734,0.26239767953411836,0.6559733853260619
1645173530597021868,0.020751609994459755,0.04344870853076424,3.7847920625810146e-08,0.6628807182264015,0.2476792297085362,0.2473716902232237,0.6618545153209565
1645173530664603177,0.021233089401993546,0.04351184839254715,3.784792062580958e-08,0.6677259144318283,0.23405561501838426,0.23387883165990384,0.6668288868787401
1645173530771203044,0.021531285980156814,0.04347288608336593,3.784792062580914e-08,0.6717865561881016,0.22187541719880832,0.2218127282902822,0.6710240202378775
1645173530863564992,0.02188874403413163,0.04352350292663332,3.784792062580929e-08,0.6748743319942956,0.2120913200232415,0.21210756619248164,0.6742197626515786
1645173530918411437,0.02239349003358885,0.04371273572970881,3.78479206258089e-08,0.6770063662127626,0.20505303541506378,0.205112011580206,0.6764205019660311
1645173530979072803,0.022879205120668787,0.0439082309858608,3.78393282812541e-08,0.6788175970765792,0.19890714875044924,0.19898422054744452,0.6782683068286977
1645173531102826427,0.02330024911462704,0.04408467106767287,3.7839328281253926e-08,0.6803087329496004,0.19370992247620933,0.1937933465367558,0.6797798413051478
1645173531160681549,0.02368153718490091,0.04423376576377713,3.7839328281253476e-08,0.6818786320108255,0.18817436626627038,0.18823512875730253,0.6813218588809924
1645173531218004538,0.02404563530969491,0.04435031475387452,3.783932828125282e-08,0.6832330276320491,0.18329073459324105,0.1833227984722214,0.6826345201682401
1645173531277287538,0.024430851557442776,0.044513519127471854,3.783932828125227e-08,0.6839667067684516,0.1806347615239047,0.1806381307389705,0.6833231246523477
1645173531343539650,0.024871176684581046,0.04475859388189755,3.7839328281252033e-08,0.6840036123781951,0.18056665406263087,0.1805494787678001,0.6833276135287365
1645173531414775523,0.02541808107173207,0.045132039842405124,3.783932828125175e-08,0.6832913183041954,0.1832905362869813,0.18325767130182544,0.6825937148456422
1645173531472020076,0.026001361985087082,0.04561053149291013,3.7839328281251524e-08,0.6818606609141122,0.18857000158195988,0.18852424606051313,0.681150498971014
1645173531537472492,0.026567966745684863,0.04617875141070792,3.78393282812515e-08,0.6797299732782378,0.19611777256155338,0.19606184724690517,0.6790174775120212
1645173531592643338,0.0270612312353023,0.046793806587136215,3.7839328281251325e-08,0.6770908427246419,0.20503847264089495,0.20497377043367734,0.6763822653424034
1645173531650188624,0.027337765548838655,0.04731894622376122,3.7839328280139965e-08,0.6748193430895069,0.21238663035939037,0.21231569919060322,0.6741163232811023
1645173531734645115,0.0275761129100835,0.04786883183996262,3.783932828013996e-08,0.6721855687480418,0.2205634446609533,0.22048777268537473,0.6714934624718286
1645173531814809257,0.02741438747837817,0.048735585849988106,3.783932828013996e-08,0.6675504235185642,0.2341883475574121,0.23410555498169108,0.6668784289922902
1645173531872711038,0.027143230251319088,0.049722887594655464,3.783932828013996e-08,0.6616880940917007,0.2502406836299019,0.2501499647045153,0.6610396822824316
1645173531927061239,0.02660594337139905,0.05080975435909404,3.783932828013996e-08,0.6546061860197987,0.2681842370512616,0.26808627714111266,0.6539860122590241
1645173531985590763,0.02621320732436743,0.051567290644641106,3.783932828013996e-08,0.6492570599615253,0.2808590284054334,0.2807578834354109,0.6486589914139299
1645173532049567724,0.02576167990687172,0.05234023699188482,3.783932828013996e-08,0.6432932352923915,0.2942355040775489,0.29413121370441103,0.6427177535217499
1645173532110614879,0.025221473943395335,0.05313235490710929,3.783932828013996e-08,0.6365709979338139,0.3084826859139435,0.3083755010957627,0.6360191407534846
1645173532178849874,0.02459830483275368,0.053880340459029154,3.783932828013996e-08,0.6296599926570835,0.3223306650295228,0.32222093190464524,0.6291302782979096
1645173532246142927,0.023876602176925204,0.05457975128073938,3.783932828013996e-08,0.6229581293432027,0.33507758102360863,0.3349666595106297,0.622449613058656
1645173532316666040,0.023272062026348475,0.05517465613170758,3.783932828013996e-08,0.6166343047582632,0.3465528093539352,0.34644378208021426,0.6161493247437196
1645173532387086364,0.022553793116008403,0.055818705400569185,3.783932828013996e-08,0.6092371539778821,0.3593709979569317,0.35926478519922667,0.6087786052056355
1645173532447365548,0.020953649737746584,0.05682711145549175,3.783932828013996e-08,0.5984110109056652,0.37711112937734137,0.37699736292613006,0.5979669275748836
1645173532515997951,0.016498427156874364,0.05856767700105487,3.783932828013996e-08,0.5799654182561234,0.40493845134157075,0.40478354508795605,0.5794956823636507
1645173532575646839,0.010311699052386915,0.06022186353861675,3.783932828013996e-08,0.5583412875029623,0.43439004290461025,0.4341261587363039,0.5577587073239851
1645173532641007217,0.010416057079252108,0.060406683442420055,3.783932828013996e-08,0.5528560694410606,0.4415664814845898,0.441135605574218,0.5520584990797306
1645173532717292770,0.009794822626405382,0.06066089508681944,3.783932828013996e-08,0.5443019761064062,0.45223808038454066,0.4516620536875161,0.543339182017585
1645173532776865370,0.00909202241912214,0.06087850064216868,3.783932828013996e-08,0.5345632468018212,0.46381385361583016,0.46313334595286865,0.5335038408757943
1645173532830943107,0.008540947169040004,0.06096347852031278,3.783932828013996e-08,0.5267728320901791,0.4726651549178456,0.4719462574445263,0.5257040657844311
1645173532896375364,0.007914902010462715,0.061023158444475534,3.783932828013996e-08,0.5172858655176283,0.4830118977139148,0.4822824834892592,0.5162542456211946
1645173532964005723,0.007157363567362712,0.06105851707013718,3.783932828013996e-08,0.5069575453097893,0.4938252399473264,0.4930845090506657,0.5059627916939128
1645173533033080617,0.0067982171717419285,0.061031183067432,3.783932828013996e-08,0.49967959714618526,0.5011807748553311,0.5004297858905981,0.4987064873296932
1645173533112579824,0.006519820024770459,0.06099646300360316,3.784005182706278e-08,0.4946990345344217,0.5061189108124056,0.5053374241653311,0.4937110501970952
1645173533173951945,0.0063103914128442955,0.0609692842129569,3.784005182706282e-08,0.4909284406593597,0.5098024295454078,0.5089887398217386,0.48991959719533823
1645173533277397338,0.006048701898069286,0.060929350778951154,3.784005182706317e-08,0.4861186821061341,0.5143845905850172,0.5135651715476336,0.48512671999110074
1645173533344006712,0.005498111980203849,0.060826305397989014,3.784005182706376e-08,0.47558839189783125,0.5239596203569602,0.5232736471158779,0.4748333265067513
1645173533402417803,0.005003429004409109,0.060675310113083095,3.78342711779706e-08,0.46443300256031306,0.5336444628710171,0.5331486339341963,0.4639807189032865
1645173533508411774,0.004618367999491911,0.06052016174607104,3.783427117797211e-08,0.4550578736950669,0.5414334505594539,0.5411449328112229,0.4549003318268069
1645173533558800192,0.004244222738975449,0.06034200277248569,3.7834271177982127e-08,0.4455840916156143,0.5490679024792608,0.5489657838249086,0.44566335271773305
1645173533621000353,0.00398445317735989,0.06015020195925654,3.7833223126059315e-08,0.43736977927311677,0.5554880315614247,0.5555430190456577,0.4376216139088981
1645173533676061916,0.0037684178217727987,0.059960538562718185,3.7833223126061743e-08,0.42988102589165966,0.5612194397912031,0.5613775655565207,0.4302211906317618
1645173533742224215,0.003706008352174092,0.059816963491517244,3.7833223126065753e-08,0.4251240274956104,0.56481220767532,0.5650094776805474,0.42546565247736723
1645173533804947322,0.0035517119679440365,0.05977792997783138,3.783322312607099e-08,0.42217853809581496,0.5670385923785093,0.5672330484276964,0.4224679697871737
1645173533893836032,0.0034710599056671718,0.05973677697135999,3.7833223126073906e-08,0.4195756277591966,0.5690112502570663,0.569178901902424,0.41978311936107127
1645173533958438360,0.003396249163210033,0.05969663862540085,3.783322312607045e-08,0.4171260234491302,0.5708602485431291,0.5709920288336618,0.41724400559289687
1645173534029435987,0.003317168991834027,0.05965500804240114,3.782810856799978e-08,0.41456631961841606,0.572774757341788,0.5728661076401617,0.41459409873670683
1645173534094182709,0.003260449135309547,0.05961884454164445,3.782538699224629e-08,0.4121616798855797,0.5745592042463497,0.5746087589818893,0.4121034391399636
1645173534169079207,0.003201264160583861,0.05956822001453473,3.7854911705664146e-08,0.4094467261833258,0.5765291166889484,0.5765519755526696,0.40933528496078386
1645173534227718426,0.0031657916663313315,0.059549682456276946,3.792492736395591e-08,0.4079605447854203,0.5775983744661677,0.5776069963494059,0.4078216147786131
1645173534287888225,0.0031498789178773037,0.059572453572002616,3.7924927363966514e-08,0.40773010939830007,0.5777749240992899,0.577771091119325,0.4075694557236706
1645173534365476676,0.003128847223207727,0.05955001693501707,3.7924927363972026e-08,0.40672804627432135,0.5785002794899312,0.5784771091597266,0.4065389983533503
1645173534450105550,0.0031233305340847978,0.05954399537634958,3.792492736397911e-08,0.40650904823678896,0.5786875670202892,0.5786295642109881,0.4062744403709826
1645173534527491283,0.00313244701195714,0.05955106523096419,3.7924927363983183e-08,0.4070065009048057,0.5783858262697322,0.5782751894712285,0.4067103999574091
1645173534585191550,0.0032061506580804977,0.059672990677540456,3.7924927363985546e-08,0.41138141591991917,0.575357184571121,0.5751609666538251,0.4109979358049722
1645173534642831902,0.003268775608544966,0.059762035736088334,3.7925036085071445e-08,0.41475168077653635,0.5729967626836908,0.5727269650412102,0.4142940703917055
1645173534707155018,0.003381471208979619,0.0599280057622277,3.79250360850736e-08,0.42074840651379686,0.5686721140654813,0.5683296321349292,0.420219269355616
1645173534791116487,0.0035291540978573677,0.060119665942839316,3.792503608507513e-08,0.4279085356137011,0.5633647384277594,0.5629541877522685,0.42731374789180226
1645173534862972492,0.0038636701545703214,0.06031283816274637,3.792503608507612e-08,0.43635395487487727,0.5569053255886448,0.55643363793182,0.43569862402125425
1645173534927328101,0.00426070231954678,0.06058963347508788,3.7925036085076474e-08,0.44901050354018784,0.5468055625271415,0.5462810175618957,0.4482971050001302
1645173534990189385,0.004593411967306043,0.060763368241043114,3.7925036085105624e-08,0.4585435963527435,0.5388766666659701,0.5383139149224138,0.4577857985649663
1645173535075377007,0.005133127637710907,0.06090829243151903,3.792503608510581e-08,0.4690389295009713,0.5297963299842257,0.5292110784326215,0.46824562551294
1645173535136197048,0.007182811077456527,0.06090990196717288,3.792503608510581e-08,0.4869109498475482,0.5134437353389907,0.5128550749502852,0.4860791392946572
1645173535205459101,0.009420625182184518,0.06075782158833061,3.792503608510581e-08,0.5033378682913288,0.49734758844194943,0.4967854347858407,0.5024943764855044
1645173535266418658,0.012326463431205173,0.06038886029380979,3.792503608510581e-08,0.5205713646160121,0.47925389232793414,0.47874274004683876,0.5197370006866812
1645173535348702529,0.015162763256760671,0.05987106844513304,3.792503608510581e-08,0.536121099985848,0.4617499732773148,0.461301799541127,0.5353146533287461
1645173535405145949,0.016099373645796215,0.059709783995720626,3.792503608510581e-08,0.5442210679682099,0.45208472543590433,0.45172436579890013,0.5434960234911198
1645173535459683890,0.01693136434447664,0.059618114058055185,3.792503608510581e-08,0.5516516441211716,0.44295712542203647,0.4426301611140765,0.5509518935881564
1645173535515931849,0.017377956733227614,0.05972612948702518,3.792503608510581e-08,0.5554390255674934,0.4381576523131795,0.4378660045867017,0.5547780841231106
1645173535572723891,0.017691856346499685,0.05994771462817587,3.792503608510581e-08,0.5578834094845353,0.43504086212540777,0.43475023198812834,0.5572232815392365
1645173535631200785,0.017856103682649376,0.06029264302400458,3.792503608510581e-08,0.5588583409579337,0.4337500724983226,0.4334871472079167,0.5582357231089587
1645173535690235136,0.01735620640417996,0.060815743413540575,3.792503608510581e-08,0.5579909845309713,0.43483465390465287,0.43459150106521977,0.5574003158840616
1645173535761601755,0.016950982867706747,0.06135687984262336,3.792503608510581e-08,0.5574803870412135,0.43541848045787857,0.4352265050573682,0.5569598317972975
1645173535822212454,0.01698118585641865,0.06184115459987298,3.792503608510581e-08,0.5583060541263571,0.4343169988236588,0.43415627551923125,0.5578274131717899
1645173535882695943,0.017209610417373383,0.06234431723588007,3.792503608510581e-08,0.559473787568249,0.432774983954108,0.43264153582821013,0.5590314801187508
1645173535942818180,0.017308599354771723,0.06291795067164072,3.792503608510581e-08,0.5600833419122263,0.4319596711624881,0.4318448206308557,0.5596673507503592
1645173536007692975,0.01729283010560282,0.06352371658784901,3.792503608510581e-08,0.5607441346727421,0.43107014122730813,0.43097787848663804,0.5603593641829651
1645173536077397449,0.017222604073439948,0.06420191356267861,3.792503608510581e-08,0.5608052121929328,0.4309566350100974,0.4308884278491671,0.5604543295074813
1645173536155343283,0.017126968601245254,0.06492341037834705,3.792503608510581e-08,0.5607407216565451,0.4310154830837667,0.4309646002356366,0.5604150334902663
1645173536240591725,0.017135096736306588,0.06565592988821058,3.792503608510581e-08,0.5609302473279303,0.4307395809093855,0.43070942291046416,0.560633627324265
