%time,field.position.x,field.position.y,field.position.z,field.orientation.x,field.orientation.y,field.orientation.z,field.orientation.w
1645118571961531578,0.0014516899133658388,-0.03540001443226077,0.0,0.49982878304888434,0.5001714354616096,0.5002655999875527,0.4997339814873801
1645118572012335467,0.0014516899133658388,-0.03540001443226077,0.0,0.49982878304888434,0.5001714354616096,0.5002655999875527,0.4997339814873801
1645118572061821268,0.0014516899133658388,-0.03540001443226077,0.0,0.49982878304888434,0.5001714354616096,0.5002655999875527,0.4997339814873801
1645118572111506850,0.0014516899133658388,-0.03540001443226077,0.0,0.49982878304888434,0.5001714354616096,0.5002655999875527,0.4997339814873801
1645118572159694795,0.0014516899133658388,-0.03540001443226077,0.0,0.49982878304888434,0.5001714354616096,0.5002655999875527,0.4997339814873801
1645118572210190218,0.0014516899133658388,-0.03540001443226077,0.0,0.49982878304888434,0.5001714354616096,0.5002655999875527,0.4997339814873801
1645118572259200492,0.0014516899133658388,-0.03540001443226077,0.0,0.49982878304888434,0.5001714354616096,0.5002655999875527,0.4997339814873801
1645118572310602028,0.0014516899133658388,-0.03540001443226077,0.0,0.49982878304888434,0.5001714354616096,0.5002655999875527,0.4997339814873801
1645118572359828598,0.0014516899133658388,-0.03540001443226077,0.0,0.49982878304888434,0.5001714354616096,0.5002655999875527,0.4997339814873801
1645118572409856816,0.0014516899133658388,-0.03540001443226077,0.0,0.49982878304888434,0.5001714354616096,0.5002655999875527,0.4997339814873801
1645118572461031978,0.0014516899133658388,-0.03540001443226077,0.0,0.49982878304888434,0.5001714354616096,0.5002655999875527,0.4997339814873801
1645118572512505910,0.0014516899133658388,-0.03540001443226077,0.0,0.49982878304888434,0.5001714354616096,0.5002655999875527,0.4997339814873801
1645118572569285145,0.0014516899133658388,-0.03540001443226077,0.0,0.49982878304888434,0.5001714354616096,0.5002655999875527,0.4997339814873801
1645118572620421208,0.0014516899133658388,-0.03540001443226077,0.0,0.49982878304888434,0.5001714354616096,0.5002655999875527,0.4997339814873801
1645118572668948810,0.0014516899133658388,-0.03540001443226077,0.0,0.49982878304888434,0.5001714354616096,0.5002655999875527,0.4997339814873801
1645118572722598195,0.0014516899133658388,-0.03540001443226077,0.0,0.49982878304888434,0.5001714354616096,0.5002655999875527,0.4997339814873801
1645118572783432498,0.0014516899133658388,-0.03540001443226077,0.0,0.49982878304888434,0.5001714354616096,0.5002655999875527,0.4997339814873801
1645118572836724856,0.0014516899133658388,-0.03540001443226077,0.0,0.49982878304888434,0.5001714354616096,0.5002655999875527,0.4997339814873801
1645118572896393419,0.0014516899133658388,-0.03540001443226077,0.0,0.49982878304888434,0.5001714354616096,0.5002655999875527,0.4997339814873801
1645118572966794383,0.0014516899133658388,-0.03540001443226077,0.0,0.49982878304888434,0.5001714354616096,0.5002655999875527,0.4997339814873801
1645118573032816194,0.0014516899133658388,-0.03540001443226077,0.0,0.49982878304888434,0.5001714354616096,0.5002655999875527,0.4997339814873801
1645118573085020152,0.0014516899133658388,-0.03540001443226077,0.0,0.49982878304888434,0.5001714354616096,0.5002655999875527,0.4997339814873801
1645118573139340913,0.0014516899133658388,-0.03540001443226077,0.0,0.49982878304888434,0.5001714354616096,0.5002655999875527,0.4997339814873801
1645118573191516400,0.0014516899133658388,-0.03540001443226077,0.0,0.49982878304888434,0.5001714354616096,0.5002655999875527,0.4997339814873801
1645118573243224379,0.0014516899133658388,-0.03540001443226077,0.0,0.49982878304888434,0.5001714354616096,0.5002655999875527,0.4997339814873801
1645118573295474444,0.0014516899133658388,-0.03540001443226077,0.0,0.49982878304888434,0.5001714354616096,0.5002655999875527,0.4997339814873801
1645118573349465265,0.0014516899133658388,-0.03540001443226077,0.0,0.49982878304888434,0.5001714354616096,0.5002655999875527,0.4997339814873801
1645118573430719554,0.0014516899133658388,-0.03540001443226077,0.0,0.49982878304888434,0.5001714354616096,0.5002655999875527,0.4997339814873801
1645118573485345042,0.0014516899133658388,-0.03540001443226077,0.0,0.49982878304888434,0.5001714354616096,0.5002655999875527,0.4997339814873801
1645118573534096006,0.0014516899133658388,-0.03540001443226077,0.0,0.49982878304888434,0.5001714354616096,0.5002655999875527,0.4997339814873801
1645118573591161153,0.0014516899133658388,-0.03540001443226077,0.0,0.49982878304888434,0.5001714354616096,0.5002655999875527,0.4997339814873801
1645118573643524617,0.0014516899133658388,-0.03540001443226077,0.0,0.49982878304888434,0.5001714354616096,0.5002655999875527,0.4997339814873801
1645118573697859534,0.0014516899133658388,-0.03540001443226077,0.0,0.49982878304888434,0.5001714354616096,0.5002655999875527,0.4997339814873801
1645118573756538681,0.0014516899133658388,-0.03540001443226077,0.0,0.49982878304888434,0.5001714354616096,0.5002655999875527,0.4997339814873801
1645118573816651180,0.0014516899133658388,-0.03540001443226077,0.0,0.49982878304888434,0.5001714354616096,0.5002655999875527,0.4997339814873801
1645118573907776883,0.002032200694059191,-0.03539966854426271,9.482634212965485e-10,0.5024601430397374,0.49753289143985896,0.497623059404145,0.5023605451677411
1645118573959074353,0.0020409941290219285,-0.03530472556092343,2.404537887154354e-09,0.5030163393866981,0.49696660410189747,0.4970612614950973,0.5029203307068901
1645118574011621633,0.00205330825457391,-0.03513506007240081,3.6423767561261267e-09,0.503707009938765,0.49627619755488805,0.496361788703882,0.5036011900240949
1645118574067841600,0.002063195771640521,-0.034843529911420916,4.69832918301751e-09,0.5040466198719624,0.495905896971839,0.4960171077923426,0.5039656487514957
1645118574124372488,0.002074511529315781,-0.034503057746714576,5.7979474934823295e-09,0.5043771653234324,0.4955651982442561,0.49568124026077187,0.5043004237981208
1645118574176837842,0.0020872009709309337,-0.03410590706010895,6.873174054648289e-09,0.5046768036136697,0.49525499414178487,0.49537637167242526,0.5046048603219793
1645118574228872503,0.0021009899672709154,-0.033648470617038184,7.858959323607026e-09,0.50492666506911,0.4949977560585917,0.4951218869792682,0.5048570108785511
1645118574283994565,0.002115717487647245,-0.033152786879844916,8.78465793579527e-09,0.5051406111253551,0.494775899691923,0.4949037685155095,0.5050742836307238
1645118574336827996,0.0021316469775708507,-0.03261978281908724,9.664389492574677e-09,0.5053375642677483,0.4945717306954676,0.4947027983305722,0.5052740747957699
1645118574391410778,0.00214657807103953,-0.03205143410602782,1.0383293360134805e-08,0.505430549145031,0.49447271319935393,0.49460790763741747,0.505370867378353
1645118574442103515,0.0021643827258133945,-0.0314510547516719,1.1142443732319365e-08,0.5055954107751367,0.49430311473594907,0.49443949675642074,0.505536641018936
1645118574496865266,0.0021834068101656743,-0.0308231338895472,1.183606993098341e-08,0.505747564831848,0.4941479433154159,0.4942839811161931,0.5056882011632446
1645118574551030856,0.0022046751928241253,-0.03017408050880109,1.2519538508605166e-08,0.5059307318421096,0.49395950316031895,0.49409657970261384,0.5058721911130202
1645118574601783343,0.0022275047251363,-0.029498507151731367,1.3145350098828276e-08,0.5061089885649414,0.49377626080401776,0.4939140609593986,0.5060509819640324
1645118574662421268,0.002249089460286827,-0.02880114317938829,1.3662375839975036e-08,0.5062132445964812,0.4936668592391207,0.493807251452157,0.5061576646632381
1645118574718369238,0.002274043309608477,-0.028084883708233147,1.4166358398948443e-08,0.5063789855280778,0.4934958239754798,0.49363733089434225,0.506324382468214
1645118574796672534,0.002301542435087176,-0.027353198067880436,1.464244087731929e-08,0.5065721332391977,0.4932977589449245,0.4934391619521665,0.5065173129295176
1645118574848742064,0.00233040257230403,-0.026589138156187426,1.5066051164626932e-08,0.5067513036978036,0.49311321006258707,0.4932551809523605,0.506696955512852
1645118574904058272,0.002361065400054072,-0.025774741160944567,1.5385242163732365e-08,0.5069033675905043,0.49295718762348206,0.49309894057882997,0.5068487169716228
1645118574962278359,0.002390149593755016,-0.024953673822569945,1.5629699846150493e-08,0.5070127006743083,0.4928452962593828,0.49298655583334267,0.506957484487127
1645118575015765588,0.0024206311335371353,-0.024125360643075362,1.5814253148423492e-08,0.5071316856831278,0.49272366434296566,0.49286418653572645,0.5070756724623039
1645118575066798903,0.002456188897162437,-0.02329383116801133,1.5962642493803966e-08,0.5073244750787703,0.4925262688041591,0.4926657558988854,0.5072673895377806
1645118575121721819,0.0024873608466817426,-0.02244429259150141,1.6027459498908364e-08,0.5074079124393047,0.49244113607786455,0.49257984338873817,0.5073500130870665
1645118575176807447,0.0023632320804767536,-0.021590420290615975,1.6027459498908364e-08,0.5072195113026455,0.4926371031368256,0.492773930178981,0.5071596451836583
1645118575230751433,0.002562955244841524,-0.020730084624511418,1.6027459498908364e-08,0.5079597090377094,0.4918759726692185,0.4920107998877784,0.5078979565806657
1645118575282905227,0.0025917550037967124,-0.01986148219458207,1.6027459498908364e-08,0.5080484054194123,0.4917862366522265,0.49191924163369144,0.5079848175888309
1645118575335579821,0.002619768099745976,-0.018987560139375588,1.6027459498908364e-08,0.50814454044615,0.4916886486998834,0.4918199578245637,0.508079253502728
1645118575389086437,0.002657698496673073,-0.01811118544696706,1.6027459498908364e-08,0.5083579963415233,0.4914693769126551,0.4915993303491273,0.5082913510114047
1645118575442582387,0.0026785985611706645,-0.01723184195254209,1.6027459498908364e-08,0.5083340627378801,0.491494356660303,0.4916240928430971,0.5082671830520528
1645118575497022517,0.002716289486756577,-0.01635483234971324,1.6027459498908364e-08,0.5085188337170995,0.4913039760862476,0.4914329837275623,0.508451198583956
1645118575548911724,0.002753465790879013,-0.015475960583398181,1.6027459498908364e-08,0.508676974362745,0.49114105810546055,0.4912693030264315,0.5086085613712449
1645118575602548904,0.002791344197888462,-0.014598410764782487,1.6027459498908364e-08,0.5088295182045595,0.490983896246538,0.4911113195503591,0.5087602646038516
1645118575654355977,0.002827441387184067,-0.013722019798809335,1.6027459498908364e-08,0.5089492877491636,0.4908608079395512,0.49098721638082904,0.5088790063258126
1645118575711701984,0.0028649909179631373,-0.012847795118918702,1.6027459498908364e-08,0.5090748267418865,0.49073182609586213,0.4908570692633346,0.5090033724726585
1645118575760578630,0.002900413275232552,-0.011977680184449982,1.6027459498908364e-08,0.5091614025350915,0.4906428754186511,0.4907670273891173,0.5090893436294432
1645118575813397495,0.0029485721758070725,-0.011162729048314817,1.6027459498908364e-08,0.5093720269848687,0.4904256889601565,0.49054805363222354,0.5092989189178694
1645118575868811596,0.0029926696141955185,-0.010421866829827034,1.6027459498908364e-08,0.5095515531435963,0.49024145871750757,0.490361276951994,0.5094765400972653
1645118575930685943,0.0030106723389701365,-0.009747361468625615,1.6027459498908364e-08,0.5094942815358623,0.4903031326098333,0.49042054237039817,0.509417419074334
1645118576010412829,0.0030348304684944157,-0.0091345349796704,1.6027459498908364e-08,0.5095195999254292,0.49027908438668943,0.49039403143143423,0.5094407626419358
1645118576070795791,0.0030681315527740422,-0.008577907147146452,1.6027459498908364e-08,0.5096422513237024,0.49015414871146956,0.49026639043610915,0.5095611372302471
1645118576128146021,0.0030951622655725646,-0.008071732221964743,1.6027459498908364e-08,0.509717066809416,0.4900785907368664,0.4901884427415413,0.5096339640439856
1645118576190884784,0.0031264015120026087,-0.007611925484770886,1.6027459498908364e-08,0.5098561376540002,0.48993532172060944,0.49004360260901136,0.5097718773814821
1645118576235438653,0.0031405612112661873,-0.007193341021955033,1.6027459498908364e-08,0.509864607794551,0.4899279516227634,0.490034635604754,0.5097791088745589
1645118576293797688,0.0031621523111059016,-0.006813239271614441,1.6027459498908364e-08,0.5099581944421234,0.4898326518098551,0.4899371368491049,0.5098707827267099
1645118576351114011,0.0031808123491190174,-0.006467654509301249,1.6027459498908364e-08,0.510031758660763,0.48975802011347913,0.48986046115755616,0.5099425609678333
1645118576424683093,0.003196961896619393,-0.006153454227652742,1.6027459498908364e-08,0.5100896698291293,0.4896995897347492,0.48980007894320143,0.5099987482479282
1645118576481593785,0.0032106965012716785,-0.005867771466207468,1.6027459498908364e-08,0.5101333920965802,0.48965646425134685,0.4897545058757533,0.5100401878864984
1645118576534673999,0.003219159751380918,-0.00560788790141105,1.6027459498908364e-08,0.5101371161364029,0.4896548395271525,0.48975059983418506,0.510041773612437
1645118576587409182,0.0032088659218203405,-0.005370823556621949,1.6027459498908364e-08,0.5099867944990717,0.4898125844809048,0.4899070675512201,0.5098903477063023
1645118576669036148,0.0032187697717648324,-0.005156166523508249,1.6027459498908364e-08,0.5100140649322414,0.48978449611112856,0.48987857832794224,0.5099174241343836
1645118576739185703,0.003232440689705858,-0.004961231548212988,1.6027459498908364e-08,0.5100765898807751,0.4897199651954097,0.48981339810116437,0.5099794732978846
1645118576793493120,0.003233904503692493,-0.004783534377511913,1.6027459498908364e-08,0.5100402818976384,0.4897585782965076,0.48985115128368634,0.5099424432353123
1645118576861149366,0.0032321264469681093,-0.004621852760894286,1.6027459498908364e-08,0.5099814745877386,0.48982047039738186,0.48991232350384584,0.5098830430952358
1645118576917425695,0.003243928735918938,-0.004475462794024429,1.6027459498908364e-08,0.5100402111336827,0.4897604044975116,0.4898511513725594,0.5099407600026811
1645118576972263828,0.0032413740086404824,-0.004341795129759176,1.6027459498908364e-08,0.5099819337047096,0.4898221856658933,0.48991181021713787,0.5098814292892532
1645118577029621973,0.0032847346043206457,-0.004222293706829735,1.6027459498908364e-08,0.5103088553611534,0.48948315407543136,0.48957128247964193,0.5102068927284183
1645118577079128666,0.0032853832774139666,-0.004111957415025193,1.6027459498908364e-08,0.5102811042067535,0.4895131946195139,0.48960020401436993,0.5101780740212322
1645118577130283688,0.0032860359275736694,-0.004011652380441337,1.6027459498908364e-08,0.5102574850114379,0.48953878813863994,0.489624816758803,0.5101535187680811
1645118577185061135,0.0032970577659369848,-0.003920936587701716,1.6027459498908364e-08,0.5103219608604439,0.48947234591748073,0.48955760633669854,0.5102172761907069
1645118577236443909,0.003219584606872347,-0.0038344909218969493,1.6027459498908364e-08,0.5096580859052646,0.49016305974356034,0.49024862274802466,0.5095538226996931
1645118577294542138,0.0015648207262925903,-0.0037170265512093677,1.6027459498908364e-08,0.5030134520380237,0.4969742914349495,0.49706351667378734,0.5029133932531529
1645118577342342985,0.00036267912436014314,-0.003637644790697374,1.6027459498908364e-08,0.4948090236527647,0.5051313039358996,0.5052309158210385,0.4947202417472347
1645118577399648438,-0.00022044246097183574,-0.0035905178576071607,1.6027459498908364e-08,0.48990395820671395,0.5098823232394857,0.5099888692949777,0.4898218874004318
1645118577476992285,-0.0012225768332150434,-0.0035780517969439415,1.6027459498908364e-08,0.4813400538556216,0.517963366111152,0.5180801282228289,0.4812677889301147
1645118577534975229,-0.002250729364966178,-0.0036039604339223245,1.6027459498908364e-08,0.4719265367585558,0.526542048087513,0.5266706579272874,0.471865270577644
1645118577582682092,-0.0032256294002546305,-0.0036589177941083557,1.6027459498908364e-08,0.4624003606412794,0.5349164815770886,0.5350556578481609,0.4623480368950077
1645118577637814432,-0.004050113926883574,-0.0037273711912341897,1.6027459498908364e-08,0.45393721916911406,0.5421094192343231,0.5422563516655401,0.4538903256391429
1645118577689102586,-0.004743019857729279,-0.0038013976924657403,1.6027459498908364e-08,0.4466051604160247,0.5481598939146574,0.5483130201555396,0.4465617463701424
1645118577743817981,-0.00529393231901526,-0.0038696115297403703,1.6027459498908364e-08,0.440713029601134,0.5529055282302419,0.5530618172352053,0.4406700905538201
1645118577800931502,-0.0057920508030767735,-0.003940466264061859,1.6027459498908364e-08,0.4353334367175102,0.5571487396468646,0.5573078690480276,0.43529073029731624
1645118577853367173,-0.006257800152718188,-0.004015262291823163,1.6027459498908364e-08,0.4302515052502879,0.561080149631962,0.5612422158851567,0.43020911546264146
1645118577919037739,-0.006723887154084314,-0.004099633981682967,1.6027459498908364e-08,0.4251155557498201,0.564978491220946,0.5651442905592463,0.42507411067424916
1645118577975761084,-0.0072147472876030305,-0.0041993097671233996,1.6027459498908364e-08,0.419632443444486,0.5690587178562087,0.5692297192188286,0.41959303473568804
1645118578028323277,-0.007747822189837423,-0.004319923452346615,1.6027459498908364e-08,0.4136140254929752,0.5734430482172096,0.5736203741579614,0.41357728989600506
1645118578083069818,-0.008362276523975015,-0.004474457149288976,1.6027459498908364e-08,0.4065846303999361,0.5784414615654705,0.5786275003289558,0.40655212424436565
1645118578133806547,-0.008893625770440996,-0.004619388583256286,1.6027459498908364e-08,0.4004158997654292,0.5827231931406055,0.5829165357183775,0.40038618829467115
1645118578185684878,-0.009505021555989797,-0.0048010042746018744,1.6027459498908364e-08,0.3932092300583079,0.58760284100849,0.5878059591367572,0.3931838717941178
1645118578235811992,-0.01018213700537089,-0.005019714144989561,1.6027459498908364e-08,0.3851103650943915,0.5929337263203074,0.5931485106721176,0.3850901805762126
1645118578289433433,-0.010945342622725764,-0.005287962702324365,1.6027459498908364e-08,0.3757998779793473,0.5988676980223901,0.599096680230912,0.3757859759389157
1645118578342326207,-0.011628235847482491,-0.0055486605873494,1.6027459498908364e-08,0.3672954302138242,0.6041117228288294,0.6043539648183831,0.3672865073660041
1645118578394612939,-0.012425995135071482,-0.00587666523078554,1.6027459498908364e-08,0.35716172094759246,0.6101462704398923,0.610405063444844,0.35715919738812796
1645118578446941296,-0.013229833799387313,-0.006244068803519364,1.6027459498908364e-08,0.34640083047856285,0.6163087724783537,0.6165832933429237,0.34640295030552626
1645118578503867334,-0.014204009901586996,-0.00668925584575177,1.6027459498908364e-08,0.33420445577958857,0.6229995924618977,0.6232854689437153,0.3342066931301398
1645118578562991585,-0.015201331975130218,-0.007189164892086936,1.6027459498908364e-08,0.3211365322586696,0.6298314915099886,0.6301239547320461,0.32113458490797553
1645118578645312340,-0.015908101683890834,-0.0076111112356401734,1.6027459498908364e-08,0.3098585351833498,0.6354521841657078,0.6357510927144615,0.30985280041564955
1645118578719700678,-0.016757255092117892,-0.008131583452832917,1.6027459498908364e-08,0.2967218631309334,0.6416899392579711,0.6419925281003096,0.29670819277292354
1645118578791227649,-0.01765879024487723,-0.008723869827211041,1.6027459498908364e-08,0.28241606757063276,0.6481082923204349,0.6484200682873399,0.28239727556345745
1645118578870159441,-0.018513505485047727,-0.00933442124080646,1.6027459498908364e-08,0.26823098471043716,0.6541045961901774,0.6544205695615003,0.2682033449063375
1645118578950652859,-0.01926502514976499,-0.009919420769420869,1.6027459498908364e-08,0.2550859197629545,0.6593418929114042,0.6596590006771669,0.2550479261164216
1645118579017039762,-0.019898180296528546,-0.01045158627695015,1.6027459498908364e-08,0.24348016163541825,0.663714017905551,0.6640339902277012,0.24343371407413983
1645118579080286088,-0.02044425163593512,-0.010941172057587573,1.6027459498908364e-08,0.2330706507026417,0.6674407718927118,0.6677611005027233,0.23301502194427737
1645118579169008625,-0.020913251181335718,-0.011386103228149305,1.6027459498908364e-08,0.22381887202917625,0.6706028481860093,0.6709186879296035,0.22375219935278978
1645118579239777965,-0.021336835991222974,-0.011804210120570533,1.6027459498908364e-08,0.21531441902563253,0.6733830725839463,0.6736967070676999,0.2152386707894003
1645118579308374275,-0.021693850294881405,-0.01217491413290086,1.6027459498908364e-08,0.20789185296225235,0.6757142511527875,0.6760234049345569,0.20780660297889766
1645118579370877734,-0.022012069262497415,-0.012517050203563532,1.6027459498908364e-08,0.20115033148237457,0.6777547289405332,0.678058701310192,0.20105588556618573
1645118579433462780,-0.022307198095380874,-0.0128433204892358,1.6027459498908364e-08,0.19481669257994447,0.6796043041165879,0.6799049415500883,0.19471444880692051
1645118579497916791,-0.022560213456171197,-0.013133826860239757,1.6027459498908364e-08,0.1892438224105022,0.6811802704386952,0.6814754544075575,0.18913333890283218
1645118579574988001,-0.022784845276848608,-0.013399149452319533,1.6027459498908364e-08,0.1842082343631143,0.6825616519373723,0.6828525417639131,0.18409053181493365
1645118579640505872,-0.022987563181729745,-0.01364413851766334,1.6027459498908364e-08,0.17960457646411265,0.6837884298881689,0.6840775574136844,0.17948112632569235
1645118579706788969,-0.02315443671179593,-0.01385472088785559,1.6027459498908364e-08,0.17566603628735866,0.684812012346201,0.6850990503005364,0.17553701238978203
1645118579781648694,-0.02329540875978185,-0.014038438382942227,1.6027459498908364e-08,0.17225099946874128,0.685680772881465,0.6859646337419922,0.17211621695210283
1645118579842586853,-0.023417521163039866,-0.014200392241601814,1.6027459498908364e-08,0.16926726465911834,0.6864245580406998,0.686706487993905,0.16912752165309758
1645118579906674631,-0.023538989573269206,-0.014358752103768005,1.6027459498908364e-08,0.166387412950745,0.6871298337548685,0.6874090793643743,0.16624252760043196
1645118579972670214,-0.023624089862790076,-0.01448130623880256,1.6027459498908364e-08,0.16413462978129878,0.6876739376947468,0.6879488112534414,0.1639841816058061
1645118580041074806,-0.023703806643517896,-0.014591889546951287,1.6027459498908364e-08,0.16214578312368202,0.6881484165744389,0.6884183476850647,0.16198975384837624
1645118580107761967,-0.02377996012101162,-0.014699752873891976,1.6027459498908364e-08,0.16019790499783698,0.6886068623872843,0.6888725980246685,0.16003675827190098
1645118580172414147,-0.023838633181810658,-0.014787111460490797,1.6027459498908364e-08,0.15862214522451082,0.6889730619693429,0.6892362460046223,0.1584567200165696
1645118580237593745,-0.02389648094302477,-0.014872041725824809,1.6027459498908364e-08,0.1570981732748056,0.6893232019074729,0.6895846661313781,0.15692888676791147
1645118580314582504,-0.023947099015393283,-0.01494611176395292,1.6027459498908364e-08,0.15578332443234488,0.6896226820576046,0.6898822916062097,0.1556102051558277
1645118580379826147,-0.023986244451739986,-0.015007771294912221,1.6027459498908364e-08,0.15468008937507785,0.6898715300587067,0.6901303912952944,0.15450367301773768
1645118580444546690,-0.02401880656499659,-0.015059166561119632,1.6027459498908364e-08,0.15377028554810973,0.6900757625770915,0.6903333407732356,0.15359042874786608
1645118580526560069,-0.024013004142754455,-0.015061015213166024,1.6027459498908364e-08,0.15375991419633245,0.6900805921618378,0.690334089839811,0.1535757451973923
1645118580590871737,-0.02398942188866717,-0.015032573487257825,1.6027459498908364e-08,0.15433951519280967,0.6899553517049097,0.690201901233656,0.15415012889141652
1645118580653211952,-0.02392895129224976,-0.014947319920395441,1.6027459498908364e-08,0.15601250914436318,0.6895850487383981,0.6898214379498131,0.15581701220272476
1645118580731439035,-0.02373376439122354,-0.014696761144235446,1.6027459498908364e-08,0.16067988258899243,0.6885210479213144,0.6887435191144965,0.16047774542999046
1645118580787612486,-0.023389330024649827,-0.014276776469009465,1.6027459498908364e-08,0.16842279469793614,0.6866792591190146,0.6868839481647658,0.16821355199707294
1645118580840344578,-0.022945913239010227,-0.013752416785331201,1.6027459498908364e-08,0.17819381629563333,0.68422218127496,0.6844057463809811,0.1779768097422152
1645118580901878068,-0.022375620809656837,-0.01310881444345794,1.6027459498908364e-08,0.19032752096461159,0.680962534158359,0.6811216660837215,0.19010191431812848
1645118580957965079,-0.021699030055051964,-0.012386850299638605,1.6027459498908364e-08,0.20418385229394997,0.6769549553908173,0.6770864060547682,0.20394837967007012
1645118581010847170,-0.020978817496442717,-0.011658761824612864,1.6027459498908364e-08,0.21854506681569913,0.6724759661482809,0.672577163066436,0.218298164089745
1645118581063464751,-0.02045828956202613,-0.01113553738222889,1.6027459498908364e-08,0.22945953706361988,0.6688498015507027,0.6689211468509073,0.22920026856832532
1645118581116900942,-0.019669580735028787,-0.010450214256158063,1.6027459498908364e-08,0.24341018042270102,0.6639190451265768,0.663962792276962,0.24313863546662662
1645118581169333550,-0.018829422917130672,-0.0097438426778914,1.6027459498908364e-08,0.25828134417103227,0.6582962195308222,0.6583120086935024,0.25799638333618063
1645118581223648497,-0.017938463126236575,-0.009047973892423119,1.6027459498908364e-08,0.273421139354214,0.6521729424921688,0.6521622247336288,0.27312225516391875
1645118581283230772,-0.016944519500332815,-0.008332972689512368,1.6027459498908364e-08,0.2894030998591429,0.6452586161107186,0.6452240151425068,0.2890901838703151
1645118581339370199,-0.01624851857617471,-0.007868222679961245,1.6027459498908364e-08,0.3007637587616357,0.640055692957684,0.6400042787901116,0.300440334273499
1645118581392151315,-0.015390321334995526,-0.007334926615469733,1.6027459498908364e-08,0.3137528701453763,0.6337985341202029,0.6337389634904363,0.31342220849307884
1645118581444458275,-0.014498437880555527,-0.0068218369325574535,1.6027459498908364e-08,0.32668584535473044,0.627231438815659,0.6271761562369169,0.32635433144663584
1645118581498213401,-0.013515924219631874,-0.006300380099636459,1.6027459498908364e-08,0.3402608910297149,0.6199599659169849,0.6199296810789092,0.33994022594166146
1645118581551205807,-0.012452337459170699,-0.005783536659800299,1.6027459498908364e-08,0.3543712149198356,0.6119714705225664,0.6119961776815585,0.35407999068831925
1645118581603137765,-0.011731145062145693,-0.005465669383891917,1.6027459498908364e-08,0.36407284525368044,0.6062033641079569,0.6062995151643801,0.3638259784629367
1645118581656528673,-0.010879706536856795,-0.005116376639522104,1.6027459498908364e-08,0.37487696300210116,0.5995165072207809,0.599710114418247,0.3746932062962448
1645118581710628442,-0.010008543187195658,-0.0047881731836599386,1.6027459498908364e-08,0.3855870724234095,0.5926131405253925,0.5929098468002106,0.3854739794381934
1645118581762252462,-0.009018688372950636,-0.004447130688129066,1.6027459498908364e-08,0.39728685645712575,0.5847517407924496,0.5851631678802467,0.3972563684611731
1645118581822921805,-0.007926565568067655,-0.0041096295983932924,1.6027459498908364e-08,0.40973600423845363,0.5759973274338461,0.5765429145854486,0.4098069707326595
1645118581868520895,-0.007119858798192796,-0.003893519298104833,1.6027459498908364e-08,0.4188696490086524,0.5692730178070248,0.5699693026514715,0.4190601894373129
1645118581920935368,-0.005657874562578167,-0.003579491921587286,1.6027459498908364e-08,0.43217571856276465,0.5591148786996004,0.5599639053105604,0.4324986999411964
1645118581973850328,-0.0032098854957751406,-0.003204793336737963,1.6027459498908364e-08,0.44973555858518993,0.5449574933322962,0.54595821260232,0.45020982652216474
1645118582026315553,-0.0012502788611307523,-0.0029611336680314604,1.6027459498908364e-08,0.4658196220668426,0.5311168147272533,0.5322877158956357,0.46647271765675413
1645118582081775499,0.0001855495686609596,-0.002842544953519747,1.6027459498908364e-08,0.4789426086879235,0.5191517510036847,0.5204868737647386,0.47978000297179385
1645118582153769840,0.0012365598567147112,-0.002807616274027825,1.6027459498908364e-08,0.4883705622820574,0.5101132404223181,0.5116241383092935,0.48940720973583224
1645118582204813312,0.0022045132640379746,-0.002806700009801131,1.6027459498908364e-08,0.49699312950610125,0.5015772936843593,0.503212883782686,0.49819157086316623
1645118582258293143,0.002929152086890063,-0.0028259374897209996,1.6027459498908364e-08,0.5037150967510401,0.49471932868150276,0.4964446701143849,0.5050411633213909
1645118582313260605,0.003698276177993006,-0.002862005660127845,1.6027459498908364e-08,0.5107182149352414,0.48742397675271415,0.48918913144592235,0.5121315900187228
1645118582367326506,0.004437293351244318,-0.002912988524581026,1.6027459498908364e-08,0.5174568030970794,0.48027208326620063,0.4820059616858779,0.5188905817828618
1645118582421728048,0.005034868765147292,-0.00296823245278219,1.6027459498908364e-08,0.5231006543820056,0.4742016038582111,0.4758355017217553,0.5244798562238725
1645118582472097681,0.005515908787304865,-0.003024491222449673,1.6027459498908364e-08,0.5275522366767631,0.46931563027758194,0.47086702614855397,0.5288815750624223
1645118582525657048,0.006002358204914643,-0.0030887517254077823,1.6027459498908364e-08,0.5319067085201488,0.464477954955082,0.4659201036020043,0.5331547053637387
1645118582581455983,0.0063787667576461725,-0.0031460387982239443,1.6027459498908364e-08,0.5353076356904736,0.46064664171442804,0.4619951226583244,0.5364801145323148
1645118582632228891,0.006614034583953006,-0.0031880116729229293,1.6027459498908364e-08,0.5375031355255655,0.45815739204347194,0.4594335603337816,0.53861209330568
1645118582685685199,0.006851731484904214,-0.0032294862863181148,1.6027459498908364e-08,0.5394899004176611,0.4558830023496097,0.457096221911079,0.5405408212435546
1645118582737338742,0.007011833202901609,-0.003214521515758689,1.6027459498908364e-08,0.5409348607991822,0.45422560012883023,0.4553856143177724,0.541934057641877
1645118582787493768,0.007157959264226326,-0.003156049511615083,1.6027459498908364e-08,0.542121359623106,0.4528464495335302,0.4539724012074776,0.5430870865037932
1645118582833698188,0.007266651587838104,-0.0030346760146014104,1.6027459498908364e-08,0.5429895409780744,0.4518208701055189,0.45293238907923733,0.5439416426864897
1645118582896151578,0.007369678943308966,-0.002855869844153227,1.6027459498908364e-08,0.5437605564086321,0.45091200907356055,0.4520063406444429,0.5446954060616177
1645118582950761297,0.007458164113900649,-0.002620854553839373,1.6027459498908364e-08,0.5443632121067984,0.45020518103480184,0.4512814276565426,0.5452788839909845
1645118582994219082,0.007545662761593881,-0.0023299725359987606,1.6027459498908364e-08,0.5449245482018795,0.44956271659610514,0.45060736560506376,0.5458054622996759
1645118583047699534,0.007597147152193281,-0.0019764306919509136,1.6027459498908364e-08,0.5451948234580067,0.4492687522069001,0.45028531880528727,0.5460433356735155
1645118583102301788,0.007647449478589283,-0.001582775335454254,1.6027459498908364e-08,0.5454087870898066,0.4490656813052088,0.4500351867954785,0.5462028922342541
1645118583163964371,0.007711947013635193,-0.0011476419249267192,1.6027459498908364e-08,0.5456652367853136,0.44879307941189805,0.44973042182495776,0.5464217866457646
1645118583213317305,0.007814810101687514,-0.0006781562129141513,1.6027459498908364e-08,0.5461415078528882,0.44824704536721793,0.4491564578434359,0.54686608607342
1645118583260934318,0.007907825755252066,-0.0001654332244880075,1.6027459498908364e-08,0.5465230424151225,0.4478153954404602,0.44869718579427403,0.5472154705197135
1645118583315489973,0.008019247142992184,0.0003745126311154153,1.6027459498908364e-08,0.5469834840884039,0.44728399062381324,0.44814020671236415,0.5476462863874245
1645118583366711086,0.008126509006294684,0.0009389615073181403,1.6027459498908364e-08,0.5473644780531955,0.44685177335918413,0.4476801530618444,0.5479946180080775
1645118583422974915,0.008242623537585677,0.0015306933258170822,1.6027459498908364e-08,0.5477661477362573,0.4463989744870689,0.44719498797371254,0.5483583187134623
1645118583472607223,0.008368480074801971,0.002145954513895981,1.6027459498908364e-08,0.5481845612287548,0.44592324582375514,0.44668822911537964,0.548740167687951
1645118583530965029,0.008509315896616142,0.0027819043394916375,1.6027459498908364e-08,0.5486652511360174,0.4453656228131127,0.4461031052927927,0.5491884227296281
1645118583586918706,0.008640297095916237,0.003441862407396555,1.6027459498908364e-08,0.5490023289128705,0.4449728327052127,0.44569226159096464,0.549503438533795
1645118583641460019,0.008794737703011174,0.0041263358915408855,1.6027459498908364e-08,0.5494531882473934,0.44443987265957013,0.4451402581073457,0.549931399473821
1645118583723072496,0.008981567794684734,0.004822709115606417,1.6027459498908364e-08,0.5500576425579555,0.44371931776918483,0.4443973877202818,0.5505095082643109
1645118583794864456,0.009151492424198823,0.005535288946560148,1.6027459498908364e-08,0.550478716229328,0.44322209386676403,0.4438801695685774,0.5509063019703383
1645118583844999936,0.009832079979770703,0.006168525125470925,1.6027459498908364e-08,0.5541875049257068,0.43950715515667926,0.43941339443468047,0.5537377887969036
1645118583899995881,0.009878599548611897,0.007008265446335021,1.6027459498908364e-08,0.5531554916634863,0.43984814140235456,0.4405165709369118,0.5536224031570575
1645118583955705879,0.010039283656670958,0.007827256695645761,1.6027459498908364e-08,0.5532009564466895,0.4398170723122884,0.4404664664895237,0.5536415235396801
1645118584007745615,0.010157646566540992,0.00865159531603496,1.6027459498908364e-08,0.5532061883030632,0.43983718167905683,0.44046701740677646,0.5536198816991565
1645118584063009366,0.010358026910138412,0.009464534217698653,1.6027459498908364e-08,0.5536238196608546,0.4393391587023492,0.4399481352100585,0.5540102961678774
1645118584109581943,0.010505303269778873,0.010289723573362585,1.6027459498908364e-08,0.5538567892548208,0.4390738172828945,0.4396615748450873,0.5542152466124474
1645118584163691791,0.010659155118427945,0.011119911299677576,1.6027459498908364e-08,0.5541529894708246,0.4387286028054931,0.4392948339738617,0.5544832965786753
1645118584220262167,0.010837596607332509,0.011939408068785809,1.6027459498908364e-08,0.5545326419680343,0.43827821325392546,0.43882214812871334,0.5548341005116665
1645118584271483639,0.011030986822353341,0.012751362349230569,1.6027459498908364e-08,0.554943526651663,0.43778721883249017,0.4383090126015205,0.5552163927034203
1645118584322208783,0.011189149491354373,0.013577885118367416,1.6027459498908364e-08,0.5551351174753751,0.4375741063935585,0.4380735388858229,0.5553786791798201
1645118584375684020,0.01137786991015418,0.014400594893212385,1.6027459498908364e-08,0.5554519892267724,0.4372046994242449,0.43767905438941146,0.5556637326784587
1645118584433069308,0.011607331403712014,0.01518465706365746,1.6027459498908364e-08,0.5559485505838138,0.4366058940465957,0.4370548780246087,0.5561290641410622
1645118584497052121,0.011793694525306474,0.015922747162751914,1.6027459498908364e-08,0.556198080569277,0.4363201650780939,0.43674423083817,0.5563478098697269
1645118584554354292,0.012005903633640154,0.01658570518792494,1.6027459498908364e-08,0.556570034490159,0.4358784693620875,0.43627716126894966,0.5566884184256786
1645118584613711330,0.012185120632787434,0.017191692094781306,1.6027459498908364e-08,0.5567918703650995,0.4356276995053718,0.43600134594342377,0.5568789337499707
1645118584684915030,0.012357135428911547,0.01774116492572608,1.6027459498908364e-08,0.5569933495575753,0.4354022074684035,0.43575126517892343,0.5570495141145274
1645118584738823346,0.012577146765810758,0.018228077783750504,1.6027459498908364e-08,0.5574772183694678,0.4348128631326672,0.43513873898727035,0.5575044420325013
1645118584792787233,0.012768003171321513,0.01867281525215499,1.6027459498908364e-08,0.5578391060508794,0.4343780417162271,0.4346814772444396,0.5578380248564202
1645118584849555799,0.012902956742943842,0.0190852761295035,1.6027459498908364e-08,0.557935843627381,0.4342830293468163,0.43456433958360563,0.557906515089588
1645118584907072337,0.013034073535090843,0.019458693353812773,1.6027459498908364e-08,0.5580340961511241,0.43418462498723104,0.4344449207684769,0.5579778398610079
1645118584958099470,0.013179532374185392,0.01979290904043092,1.6027459498908364e-08,0.5582310152363767,0.433957796315728,0.4341982581927818,0.5581492965392906
1645118585018116876,0.013252756679357821,0.020109211840586512,1.6027459498908364e-08,0.5580999873389006,0.43415126039029855,0.43437292726276533,0.5579939491562605
1645118585079305944,0.013345472567228775,0.02039137905648167,1.6027459498908364e-08,0.5580903244858607,0.4341863836761485,0.4343910107550879,0.5579622063551054
1645118585133230905,0.013444007091994298,0.020645016046041582,1.6027459498908364e-08,0.5581449115824387,0.4341355133171133,0.4343257087671475,0.5579980219099548
1645118585183940927,0.013491631992809608,0.020884463487923596,1.6027459498908364e-08,0.5579812133049381,0.43436367220305394,0.4345405137508402,0.5578169124167643
1645118585242405288,0.013638518089073341,0.021080491238643913,1.6027459498908364e-08,0.5583305678056593,0.4339303309867445,0.4340955266955802,0.5581509819093939
1645118585299053340,0.013379891433144855,0.021341502982893362,1.6027459498908364e-08,0.556721222497232,0.43601277383711573,0.4361625584716298,0.5565218450874353
1645118585352658190,0.01235028488233288,0.021739617689520017,1.6027459498908364e-08,0.5511107387296096,0.4431082244568998,0.44323622180442734,0.5508844767790102
1645118585405945165,0.011938419127094521,0.02198278309359985,1.6027459498908364e-08,0.5485383525225446,0.4463006394617125,0.446418128547338,0.548299434189204
1645118585457370980,0.00998268804233206,0.02245424326673598,1.6027459498908364e-08,0.5393335284064403,0.4573982246476463,0.457497507409555,0.5390753564575872
1645118585513445318,0.005538214091419029,0.023126410823396226,1.6027459498908364e-08,0.5211827632261138,0.47799440935597703,0.47806884556051416,0.5209031108035833
1645118585583528254,0.0013055263120198219,0.023531963869227297,1.6027459498908364e-08,0.500928825206498,0.49920828212712975,0.4992444399499161,0.5006160128401828
1645118585640016773,-0.002291970392661023,0.023628802625088527,1.6027459498908364e-08,0.4820630262688352,0.5174827045905604,0.5174734206741642,0.48171376153265594
1645118585694108206,-0.005367084176171293,0.02352258336841633,1.6027459498908364e-08,0.46439947175936086,0.5334283055682666,0.5333675631168363,0.4640112240700567
1645118585756161359,-0.008678752327362054,0.023214045011642953,1.6027459498908364e-08,0.4444448996587198,0.5501770050887178,0.5500884577316826,0.44404581172366486
1645118585822450280,-0.010595685933495767,0.022935882023354354,1.6027459498908364e-08,0.4328910776142038,0.5592703940032998,0.559224918019925,0.4325383594307047
1645118585880300507,-0.013066715363203911,0.02247265161042705,1.6027459498908364e-08,0.4174307696211411,0.5708165397922916,0.5708685359253339,0.4171680059202922
1645118585960018237,-0.01565395996684199,0.02186181234269136,1.6027459498908364e-08,0.40078458174382264,0.5824898433851041,0.5827095588450816,0.40065804799128496
1645118586013373361,-0.017816985147844876,0.02124378993377063,1.6027459498908364e-08,0.3865193558521825,0.5918782802336087,0.5923293460520633,0.38656026017277706
1645118586060473452,-0.01945246263542017,0.02070782340256667,1.6027459498908364e-08,0.37549915233432235,0.598739398574495,0.5994571409816828,0.3757161898520139
1645118586131114925,-0.021088474041012835,0.02011339815007371,1.6027459498908364e-08,0.3642190083705324,0.605482373992313,0.6064686849016717,0.3645975081646143
1645118586184497960,-0.022802507439890013,0.019425652791887914,1.6027459498908364e-08,0.35183707347831134,0.6125824403620552,0.6138368112963714,0.35236032209058327
1645118586237309275,-0.024626396888377335,0.01861677813751089,1.6027459498908364e-08,0.33789675864629654,0.6202123298378366,0.6217314854397916,0.33854454127377287
1645118586291117003,-0.027128869606885507,0.017402183978517193,1.6027459498908364e-08,0.31883667438637436,0.6300522260923094,0.6318546060040636,0.31958899282328584
1645118586344996904,-0.02963144945527568,0.0160162660868062,1.6027459498908364e-08,0.2979598459058549,0.6400100588703416,0.6421225157606639,0.2988071778350159
1645118586407366202,-0.031466678629359805,0.01486878721943832,1.6027459498908364e-08,0.28209664863249706,0.6469706875790077,0.6494123387933776,0.2830442093856801
1645118586483369598,-0.0335764139302967,0.013428503510255926,1.6027459498908364e-08,0.2628610934301765,0.6548434372411301,0.6576124345892913,0.2638749782310724
1645118586559895027,-0.0360592870982948,0.011558748169881552,1.6027459498908364e-08,0.23896459918074872,0.6637600053041304,0.6668690685091948,0.24000879392787627
1645118586636664134,-0.03865601417716348,0.009361903490052694,1.6027459498908364e-08,0.2124076063244772,0.6725801333519407,0.6759936811221785,0.21342801146678944
1645118586697699522,-0.041746348355855056,0.006404085352449675,1.6027459498908364e-08,0.1783881820760171,0.6823438112765874,0.6858956576128818,0.1792532470443334
1645118586752383718,-0.04481970606604004,0.0029655696505130526,1.6027459498908364e-08,0.14119454007194326,0.6909511305248901,0.6946369834840922,0.14188057744582064
1645118586807516444,-0.04689541173817953,0.00011443488137400683,1.6027459498908364e-08,0.11213192078668757,0.6961832007977437,0.7000401840958514,0.11269038964673356
1645118586869574876,-0.04909406093296326,-0.003215632941756339,1.6027459498908364e-08,0.07979760929478134,0.7005557269993751,0.7045725719736469,0.08019666914308009
1645118586933165214,-0.05105908165778335,-0.006813973084636457,1.6027459498908364e-08,0.04578687619207414,0.7035692418658761,0.7076575123796064,0.04598618315913128
1645118587018685612,-0.052809125207053276,-0.010595393183999121,1.6027459498908364e-08,0.011529803831390031,0.7049928671150458,0.709027384429467,0.01150169855350043
1645118587071579215,-0.05397476017911408,-0.01383458808851882,1.6027459498908364e-08,-0.016745604277793674,0.7049556914612597,0.7088505390639758,-0.01696971073559289
1645118587132525191,-0.054456094773992415,-0.015997675020101902,1.6027459498908364e-08,-0.035306541145470924,0.704354178632844,0.7080726317454529,-0.035662127920989925
1645118587246634049,-0.05513404694418699,-0.018215050081642453,1.6027459498908364e-08,-0.052475292734921075,0.7033312744549247,0.7069436220056633,-0.05293559607201648
1645118587334092771,-0.05555763241034367,-0.0202027292132139,1.6027459498908364e-08,-0.06829823962728379,0.7020313944350431,0.7055117300647887,-0.0688510743008539
1645118587398835261,-0.05583402401930816,-0.02208868690926303,1.6027459498908364e-08,-0.08363946716145051,0.700417153533661,0.7037884122055059,-0.08427408506768627
1645118587481721279,-0.05589152221228998,-0.023465363296305247,1.6027459498908364e-08,-0.09495301554506316,0.6990281134729542,0.7022790024050007,-0.09564425855412612
1645118587579922679,-0.05612595545983645,-0.024897360226423512,1.6027459498908364e-08,-0.10546412343948126,0.6975795621063641,0.7007004826916784,-0.10620219750209614
1645118587635685534,-0.05616292739681009,-0.025691630484122138,1.6027459498908364e-08,-0.11097307743160208,0.6967710235810477,0.699793692125964,-0.11173139775318465
1645118587714136822,-0.05619152602156774,-0.02632682185942442,1.6027459498908364e-08,-0.1151062935121474,0.6961464206133976,0.6990732384461711,-0.11587626827535825
1645118587803425545,-0.056208961193812475,-0.026848911263996432,1.6027459498908364e-08,-0.11834371884225613,0.6956567141445101,0.6984749072049581,-0.11911886618526896
1645118587862398560,-0.05619926137233067,-0.027201216164225342,1.6027459498908364e-08,-0.12028621600171714,0.6953747551602261,0.6980900882030497,-0.1210595096574104
1645118588006400390,-0.056202325763486806,-0.02754014087128351,1.6027459498908364e-08,-0.12211983373802915,0.6951030583623679,0.6977224221142988,-0.1228898130115973
1645118588099222529,-0.05619800834524856,-0.027681553048120502,1.6027459498908364e-08,-0.12224912778948739,0.6951262002343707,0.6976558155327675,-0.12300845318812327
1645118588171831241,-0.056177706913663014,-0.02654694010746555,1.6027459498908364e-08,-0.1106680386741674,0.6971057437293348,0.699565639048999,-0.1113736231678759
1645118588233097587,-0.05611856640326917,-0.024968750776894665,1.6027459498908364e-08,-0.09518100031304659,0.6994343707180206,0.7018194553952439,-0.09582061503876849
1645118588305646099,-0.055717956597267394,-0.02239029564600553,1.6027459498908364e-08,-0.0723525661193565,0.702214476581148,0.7045175125755262,-0.07290411188809542
1645118588385025268,-0.055623239412823385,-0.020254177856065203,1.6027459498908364e-08,-0.05119484199000108,0.704124605510526,0.7063413041366609,-0.051668076592575767
1645118588461421771,-0.05501275310446308,-0.017161004778667978,1.6027459498908364e-08,-0.02327011329578489,0.7056453758604511,0.7077879739483415,-0.023649297834306165
1645118588513961612,-0.05373952112181503,-0.012910371385621566,1.6027459498908364e-08,0.013401402898269327,0.7059356182059292,0.7080273435053815,0.013137206600825256
1645118588580590810,-0.05236355410590695,-0.008975132429815428,1.6027459498908364e-08,0.049130145750461054,0.7043733820033642,0.7064318079883551,0.04897415814462247
1645118588637963958,-0.050824498059508116,-0.0053889296629308706,1.6027459498908364e-08,0.08326232466196853,0.701167941773903,0.7032120434906095,0.08320892145788278
1645118588698698161,-0.04866119721066153,-0.001304865386660086,1.6027459498908364e-08,0.12200826476067353,0.6954667176844991,0.6975226960445428,0.12207422506811455
1645118588752399101,-0.045983715646384135,0.00282897351058885,1.6027459498908364e-08,0.16225071603070343,0.6871521742275873,0.6892785918988269,0.1624549702280096
1645118588826471346,-0.04393023122875704,0.0054187167828684945,1.6027459498908364e-08,0.18911091631734406,0.6801621889751096,0.6824422997128373,0.18944383225865455
1645118588877672579,-0.04046252762919813,0.009323334471843529,1.6027459498908364e-08,0.22967996484937125,0.6674149733314725,0.6699260589502111,0.23022476552093452
1645118588936856953,-0.03798708342598791,0.01158157306805761,1.6027459498908364e-08,0.25497664340925646,0.6579294757431734,0.6608324626391953,0.2557658550046664
1645118588986748412,-0.03528116707490023,0.013771151307761844,1.6027459498908364e-08,0.28036244402552274,0.6472012285630004,0.650612565604027,0.281479589321701
1645118589038464313,-0.03277504362785418,0.015541997484045628,1.6027459498908364e-08,0.3020612922626683,0.6369694449850847,0.640989907365595,0.30358003973818026
1645118589099453937,-0.030305057032920916,0.01709167376697108,1.6027459498908364e-08,0.32207012256724965,0.6266555360722015,0.6313199142361146,0.3240506768215005
1645118589145212761,-0.02814861107612381,0.018279674139752882,1.6027459498908364e-08,0.33839837545789425,0.6176190839708694,0.6228044589621415,0.34080465445663355
1645118589216224372,-0.027008369155905113,0.018786941763352834,1.6027459498908364e-08,0.34583318087416737,0.6130718593134051,0.6188530997224934,0.3486590702797085
1645118589274117711,-0.025923204679828286,0.019243732616426854,1.6027459498908364e-08,0.3527873822887432,0.6089467409062779,0.6149140259876259,0.35581690555840273
1645118589329928183,-0.02469952181010225,0.01975155626244083,1.6027459498908364e-08,0.36073670695618065,0.6043228185446535,0.6101683311206612,0.36380979500017996
1645118589379026075,-0.023061662500932514,0.02042984793382431,1.6027459498908364e-08,0.37157837337464644,0.5977515198149224,0.6034862184867,0.37473592981700427
1645118589427355132,-0.021142957943587504,0.021178091161679437,1.6027459498908364e-08,0.38409331773783034,0.5897184281536091,0.5954791983006478,0.38743905734500994
1645118589484325485,-0.01888344793201532,0.021988390948000154,1.6027459498908364e-08,0.3985872043078034,0.5799203629855878,0.585730486675457,0.40216962855948574
1645118589536618000,-0.017881260604741385,0.022257223300323734,1.6027459498908364e-08,0.40441815878289933,0.5757482510990801,0.5816805679262441,0.408175968302877
1645118589585986167,-0.015761460052869106,0.02288201212128006,1.6027459498908364e-08,0.41697369208743906,0.5665875580459926,0.5726081061354609,0.4209886411322736
1645118589637895887,-0.01378240340439083,0.023383509071836506,1.6027459498908364e-08,0.4286090521494199,0.55783327488907,0.5637701350021652,0.43275807643733305
1645118589691690813,-0.011318477005251286,0.023911289149769557,1.6027459498908364e-08,0.4418637687247827,0.5474860413797008,0.5532024070144766,0.4460745915831731
1645118589744563247,-0.0075197089405402325,0.0245388495660402,1.6027459498908364e-08,0.45916883131995234,0.5329826153736491,0.5386444211552318,0.463633156290691
1645118589799147741,-0.006267584954031302,0.024654515965324364,1.6027459498908364e-08,0.46482078379025427,0.5279737864862678,0.5336835183978323,0.46943287265642814
1645118589860076536,-0.0043862361254838654,0.024825184244104823,1.6027459498908364e-08,0.4734604563374025,0.5201669730999693,0.5258779797855072,0.4782403859540694
1645118589912332469,-0.002388627162332443,0.024955135963034558,1.6027459498908364e-08,0.48227281600160266,0.5120062717746479,0.517631995168518,0.4871546224630925
1645118589964801775,-0.0015322013785475242,0.024956417355732712,1.6027459498908364e-08,0.48568897664649435,0.5087989836138707,0.5143542395517132,0.49058080730165254
1645118590019351903,-0.0017968277947784449,0.024901678676425742,1.6027459498908364e-08,0.4849367635293548,0.5096586099234498,0.5150675165268072,0.48968345911156497
1645118590094926335,-0.0022660110354848946,0.024844627459522605,1.6027459498908364e-08,0.48385216813281257,0.5108473584864132,0.5160956370493082,0.4884335667614261
1645118590161049601,-0.0027716183802474,0.024788535674014203,1.6027459498908364e-08,0.4827682414812075,0.512103364697209,0.5171135333995006,0.48711247413509406
1645118590226603688,-0.0029744560516713568,0.02474781684731609,1.6027459498908364e-08,0.48264199163096705,0.5124385999320872,0.5172183106604383,0.4867736725950649
1645118590301385985,-0.0027475533137784687,0.024726761136987924,1.6027459498908364e-08,0.48351089250752854,0.5117522432683872,0.5163821271957243,0.4875206221783392
1645118590362869898,-0.002640639075521454,0.024700412253781386,1.6027459498908364e-08,0.4837856068226216,0.5116767287762306,0.5161085617624565,0.4876170262978944
1645118590425200473,-0.0025343933184731934,0.024676818312142017,1.6027459498908364e-08,0.48409438700449664,0.5115491289775523,0.515804016777669,0.4877666751522283
1645118590488117312,-0.002401360823036876,0.024657383101238016,1.6027459498908364e-08,0.48453433898248915,0.5112048019842034,0.5153795576582071,0.4881393615793687
1645118590557424337,-0.0023250903400068553,0.02463681838179344,1.6027459498908364e-08,0.48471223844819905,0.5111266596827632,0.515204311993883,0.4882295572402146
1645118590618695303,-0.002315545199561675,0.024614685881075134,1.6027459498908364e-08,0.48462650295502047,0.5114055178621579,0.515276197333331,0.487946707536199
1645118590675445176,-0.002308193562210059,0.024659572554510244,1.6027459498908364e-08,0.48457209765030523,0.5116488096764015,0.5153182522218774,0.48770121658909504
1645118590740195422,-0.002303429793324881,0.024752853460691934,1.6027459498908364e-08,0.48454163737405054,0.5118965395712505,0.5153361335506408,0.487452565777347
1645118590799664195,-0.0023499168647544404,0.024910929953689705,1.6027459498908364e-08,0.48427144516505044,0.5123523761495955,0.5155830084396282,0.48698087381328303
1645118590872660694,-0.0023483626750458453,0.025150351747666038,1.6027459498908364e-08,0.48425364889411665,0.5125514192384965,0.5155904662404007,0.4867811800915606
1645118590937981352,-0.0023437898522999756,0.02545942579647845,1.6027459498908364e-08,0.4843447978492287,0.5126368731753769,0.5154949614192096,0.48670165174237856
1645118591029706145,-0.0023113279194371464,0.025848604958324056,1.6027459498908364e-08,0.4845543721144808,0.5125957832712559,0.5152878368428349,0.4867556559908577
1645118591090461709,-0.0023553112410672878,0.026280924219312482,1.6027459498908364e-08,0.4843939353986046,0.5129003108570488,0.5154322714136648,0.48644152789120965
1645118591156308746,-0.002408916495879106,0.026774328382991482,1.6027459498908364e-08,0.4842053753470918,0.5131994716878654,0.5156047967554453,0.48613079547282634
1645118591220406501,-0.002466013555231646,0.027350005006189386,1.6027459498908364e-08,0.4840036616192343,0.5135036818291214,0.5157898215720869,0.48581404287004093
1645118591295377543,-0.0024784911263685027,0.027985978647348492,1.6027459498908364e-08,0.48407242538862844,0.513547652654022,0.5157189902744493,0.48577424643779327
1645118591354944805,-0.002550797073486373,0.028659531546378226,1.6027459498908364e-08,0.48384390379841696,0.5138503840044135,0.5159304641513085,0.48545712043004297
1645118591408338221,-0.002609000618527419,0.029375132392377153,1.6027459498908364e-08,0.48371200032049594,0.5140615655955139,0.5160503719785527,0.48523748938454847
1645118591480266988,-0.0025319944326010232,0.03012035728921419,1.6027459498908364e-08,0.4842761135774345,0.5136171550217625,0.5155126340558025,0.48571677757158377
1645118591562608652,-0.0026372411077517054,0.030872945180763747,1.6027459498908364e-08,0.48391949243236915,0.5140525879813924,0.5158442691963198,0.4852592622206551
1645118591634974978,-0.002763136890624025,0.03164871101274567,1.6027459498908364e-08,0.4834520191227671,0.5144342704238413,0.5162889367327315,0.48484766723888006
1645118591722611390,-0.002725733696684364,0.03249453997279173,1.6027459498908364e-08,0.48381635501356507,0.5143154994374767,0.515932222858204,0.48498994121151406
1645118591783235561,-0.002911530255231285,0.03334865188665922,1.6027459498908364e-08,0.48304277832809933,0.5149192440312074,0.5166683831705988,0.4843362760141638
1645118591839792910,-0.00281474021625923,0.03427447142618047,1.6027459498908364e-08,0.4837537492552638,0.5145296278707019,0.515982039218568,0.48477222210905296
1645118591901232277,-0.0028738985524051916,0.03520856714462927,1.6027459498908364e-08,0.48370253428922233,0.5146463087138712,0.5160264757201602,0.48465215526724914
1645118591974972219,-0.002933634615275938,0.03613832199780025,1.6027459498908364e-08,0.48367714607415074,0.5147379071979997,0.5160465672236813,0.48455881553804275
1645118592033708460,-0.0029655940196438124,0.037080462536273257,1.6027459498908364e-08,0.48378534912936993,0.5147005377917933,0.5159410493325216,0.48460285386928664
1645118592096912414,-0.003089669652316351,0.038038317843925216,1.6027459498908364e-08,0.4834658995286718,0.5150616599519442,0.5162381418713361,0.4842214279827964
1645118592155319856,-0.003295262385885461,0.03898827293743897,1.6027459498908364e-08,0.48279813669654426,0.5157494196230835,0.5168614164923744,0.483490197938161
1645118592217666713,-0.0033102522955687527,0.039940573562611506,1.6027459498908364e-08,0.4829214340427901,0.5156896982988096,0.5167423925937843,0.4835579833970047
1645118592290477745,-0.0030861272497385846,0.040925109019425976,1.6027459498908364e-08,0.4841117201633735,0.5146313961121896,0.5156201672045445,0.48469187295437977
1645118592355020139,-0.0032196134477039413,0.04189583773886612,1.6027459498908364e-08,0.48373441310115795,0.5150439969920554,0.5159718841752835,0.48425583474515055
1645118592419384954,-0.003276278639683315,0.042886393715220086,1.6027459498908364e-08,0.48368081440416694,0.515146226220489,0.5160192046704888,0.4841501996274874
1645118592500625391,-0.0024181883743544,0.04392860009500189,1.6027459498908364e-08,0.4872526463234539,0.5118132953009039,0.5126364880094396,0.4876841606668787
1645118592566051001,0.0010939694645377834,0.04506984178134325,1.6027459498908364e-08,0.5000555506342927,0.49933916542775836,0.5001235035964752,0.5004810938488286
1645118592630628387,0.0026657710408894897,0.0460952352641916,1.6027459498908364e-08,0.5037495239555452,0.4956408341205903,0.49639396162132854,0.504152373328421
1645118592708641925,0.0023053479394595042,0.04712918745567751,1.6027459498908364e-08,0.501179697088514,0.4982671537802695,0.49899497222527267,0.5015503687406316
1645118592760914959,0.0017050324728515585,0.048165889411047956,1.6027459498908364e-08,0.49895294167029525,0.5005241455385391,0.5012266687298103,0.4992928682501692
1645118592817913779,0.0013040283611432818,0.049217112294026,1.6027459498908364e-08,0.4978975539448268,0.5016011954589317,0.5022772821546331,0.49820858916850624
1645118592870979812,0.0011907290339033358,0.05025045455429124,1.6027459498908364e-08,0.49789650270742364,0.5016287996168497,0.5022782910117488,0.4981808289817878
1645118592932232879,0.0014901111680894691,0.051269298502681776,1.6027459498908364e-08,0.49923552325280585,0.5003207165438397,0.5009449459160715,0.49949698105262824
1645118592988139020,0.0014341046338133443,0.052279067714993924,1.6027459498908364e-08,0.4989608928882604,0.5006200368217868,0.501218297490127,0.49919717984158396
1645118593050687296,0.00133015887053525,0.05319693193364538,1.6027459498908364e-08,0.49865365204192535,0.5009518416359158,0.501523806409258,0.4988643696152226
1645118593127294741,0.0012270970811481192,0.05403130564321722,1.6027459498908364e-08,0.49840700363346924,0.5012204885825643,0.5017686664828375,0.4985947110531629
1645118593195799754,0.001260210946598873,0.054790399926389864,1.6027459498908364e-08,0.4986656044968547,0.5009792677973617,0.5015107492121668,0.49883800632434416
1645118593260483371,0.00010290576971663606,0.055475479944635295,1.6027459498908364e-08,0.49448550558204235,0.505127986986207,0.5056378298847116,0.4946313642724279
1645118593332732915,-0.002978650807766745,0.05605379576308408,1.6027459498908364e-08,0.48383312024285524,0.5153486874182671,0.5158524155810396,0.4839602540204393
1645118593395881574,-0.006406161878177555,0.05646580283994234,1.6027459498908364e-08,0.4725105459321327,0.5257468098369953,0.5262557242268392,0.4726298643205005
1645118593465023016,-0.010514820130525366,0.05662656323843293,1.6027459498908364e-08,0.45681680985174616,0.5394628660313154,0.5399474180241803,0.4568971483596316
1645118593557213791,-0.0177702733502913,0.05611894280990601,1.6027459498908364e-08,0.4274685300493211,0.5631248411512537,0.5634638560337974,0.4273985868476421
1645118593624777322,-0.02535035320110008,0.054864717034455106,1.6027459498908364e-08,0.3965103542621573,0.5856391218300363,0.5855714206206978,0.39612178594125563
1645118593699829016,-0.03450597785300033,0.05236123838550736,1.6027459498908364e-08,0.35685226210846227,0.611148622862169,0.6102854697972495,0.3559571170184518
1645118593751762640,-0.03754020997738865,0.05136448178926361,1.6027459498908364e-08,0.3464328978721727,0.6174827683369882,0.6160447605264314,0.34523634094153477
1645118593799143908,-0.03676045794874942,0.05202432322682496,1.6027459498908364e-08,0.35453170151023433,0.6131215886549994,0.6113120333589807,0.35311016414134266
1645118593857306067,-0.03841943403101465,0.05148238290492325,1.6027459498908364e-08,0.3481872549006271,0.6169762760082301,0.6148009972445467,0.34659146578483785
1645118593912350463,-0.041719087716207734,0.05008877625968978,1.6027459498908364e-08,0.3335252554617131,0.6251752227949628,0.6227262277792946,0.3318567311479869
1645118593963316110,-0.04522517191801962,0.04842451239236924,1.6027459498908364e-08,0.31776347463968907,0.6333810054901643,0.630810387548727,0.3161220192106124
1645118594016415265,-0.04820401782081691,0.04680753923875815,1.6027459498908364e-08,0.3032225198421225,0.6404308161717818,0.6378831260738159,0.3016779584729797
1645118594069817844,-0.04882758700289136,0.04652232220102486,1.6027459498908364e-08,0.3018750976576773,0.6409572946907659,0.6385834462440708,0.3004269528186478
1645118594130474637,-0.05198427655388266,0.04459355662660946,1.6027459498908364e-08,0.2857266098895513,0.6482109991799527,0.6459754373989358,0.28442668514117114
1645118594190175468,-0.05651219291465872,0.0414718995875756,1.6027459498908364e-08,0.26079207759766515,0.6584804118621036,0.656464294789115,0.259703040265661
